customer_id,customer_name,customer_gender,customer_birthdate,kids_home,teens_home,number_complaints,distinct_stores_visited,lifetime_spend_groceries,lifetime_spend_electronics,lifetime_spend_vegetables,lifetime_spend_nonalcohol_drinks,lifetime_spend_alcohol_drinks,lifetime_spend_meat,lifetime_spend_fish,lifetime_spend_hygiene,lifetime_spend_videogames,lifetime_spend_petfood,lifetime_total_distinct_products,percentage_of_products_bought_promotion,customer_loyalty_flag,latitude,longitude,typical_hour_sin,typical_hour_cos,tenure,total_children,lifetime_spend_technology,log_total_spend,annual_spend_groceries,annual_spend_electronics,annual_spend_vegetables,annual_spend_nonalcohol_drinks,annual_spend_alcohol_drinks,annual_spend_meat,annual_spend_fish,annual_spend_hygiene,annual_spend_videogames,annual_spend_petfood,annual_spend_technology
34,Bsc. Ruth Snoddy,female,1957-09-29 03:57:00,0,1,1,1,13396.0,1321.0,439.0,326.0,5.0,696.0,523.0,670.0,1359.0,765.0,60,0.08498813180235554,1,38.75980720441785,-9.155894766799689,0.7071067811865476,-0.7071067811865475,16.0,1.0,2680.0,10.006991345550789,837.25,82.5625,27.4375,20.375,0.3125,43.5,32.6875,41.875,84.9375,47.8125,167.5
221,Phd. Lance Cutchall,male,1953-02-21 22:16:00,4,1,1,4,14984.0,7280.0,1225.0,565.0,2187.0,3052.0,1645.0,1557.0,443.99999999999994,663.0,201,0.1325526818816176,1,38.72748817976792,-9.189908349411407,0.5,-0.8660254037844387,5.0,5.0,7724.0,10.62927131837234,2996.8,1456.0,245.0,113.0,437.4,610.4,329.0,311.4,88.79999999999998,132.6,1544.8
229,Bsc. Cynthia Hale,female,1955-09-16 03:52:00,5,3,0,5,52693.0,5899.0,674.0,969.0,1174.0,1240.0,1789.0,527.0,103.0,383.0,336,0.2382090287386147,1,38.78683030724032,-9.15684748856788,0.5,-0.8660254037844387,12.0,8.0,6002.0,11.176809164996051,4391.083333333333,491.5833333333333,56.166666666666664,80.75,97.83333333333333,103.33333333333333,149.08333333333334,43.916666666666664,8.583333333333334,31.916666666666668,500.1666666666667
231,Phd. Mary Garcia,female,1975-05-31 07:25:00,4,2,1,3,20793.0,7260.0,1626.0,815.0,3258.0,1853.0,1158.0,1331.0,1240.0,501.0,385,0.2315365962134947,1,38.7204073695961,-9.16885039373776,0.8660254037844387,-0.4999999999999998,6.0,6.0,8500.0,10.785931903626453,3465.5,1210.0,271.0,135.83333333333334,543.0,308.8333333333333,193.0,221.83333333333334,206.66666666666666,83.5,1416.6666666666667
286,Phd. Jasper Walker,male,1941-11-01 16:41:00,6,1,2,1,34969.0,6018.0,615.0,1812.0,1186.0,1161.0,1990.0,341.0,343.0,503.0,203,0.1270267562632488,1,38.77574851219328,-9.1690225844845,0.9659258262890683,-0.25881904510252063,17.0,7.0,6361.0,10.920528187510426,2057.0,354.0,36.1764705882353,106.58823529411765,69.76470588235294,68.29411764705883,117.05882352941177,20.058823529411764,20.176470588235293,29.58823529411765,374.1764705882353
391,Bsc. Margaret Watanabe,female,1966-10-01 08:28:00,3,2,2,5,33956.0,5171.0,178.0,710.0,1215.0,1761.0,746.0,453.0,275.0,610.0,498,0.009035674838240804,1,38.74972889896288,-9.117948687226075,0.258819045102521,-0.9659258262890682,20.0,5.0,5446.0,10.830164163962701,1697.8,258.55,8.9,35.5,60.75,88.05,37.3,22.65,13.75,30.5,272.3
422,Bsc. Michael Allen,male,1978-04-06 04:29:00,2,0,4,3,15304.999999999998,4220.0,771.0,794.0,3018.0,1595.0,452.0,941.0,518.0,559.0,262,0.1935473472730516,1,38.75044357501903,-9.152253122408013,-0.25881904510252074,-0.9659258262890683,10.0,2.0,4738.0,10.401592611892738,1530.4999999999998,422.0,77.1,79.4,301.8,159.5,45.2,94.1,51.8,55.9,473.8
523,Msc. Bennie Floyd,male,1965-01-04 10:45:00,3,6,0,4,7426.000000000004,5050.0,334.0,973.0,1802.0,1095.0,491.60000000000014,902.0,1654.0,45.0,191,0.2828160357707628,1,38.74512455220621,-9.125814685601194,0.258819045102521,-0.9659258262890682,13.0,9.0,6704.0,10.184054371502308,571.2307692307695,388.46153846153845,25.692307692307693,74.84615384615384,138.6153846153846,84.23076923076923,37.81538461538462,69.38461538461539,127.23076923076923,3.4615384615384617,515.6923076923077
591,Msc. Rene Gillenwaters,female,1944-06-15 00:56:00,0,0,1,2,33092.0,24632.0,1156.0,40.0,1026.0,524.0,930.0,543.0,562.0,391.0,286,0.4140935948291909,1,38.76382056656215,-9.18589563432286,0.258819045102521,-0.9659258262890682,5.0,0.0,25194.0,11.386125650065745,6618.4,4926.4,231.2,8.0,205.2,104.8,186.0,108.6,112.4,78.2,5038.8
609,Bsc. Donald Smith,male,1964-03-14 21:46:00,2,0,0,7,19814.0,5610.0,887.0,762.0,1905.0,1356.0,2409.0,961.0,325.0,77.0,374,0.1761214154132449,1,38.70892621895143,-9.16693335032041,0.5,-0.8660254037844387,5.0,2.0,5935.0,10.597684182231644,3962.8,1122.0,177.4,152.4,381.0,271.2,481.8,192.2,65.0,15.4,1187.0
717,Phd. Katharine Craddock,female,1985-08-28 20:49:00,1,1,1,6,7002.0,5582.0,512.0,1346.0,1108.0,2226.0,2379.0,824.0,336.0,160.0,278,0.1543906676882667,1,38.75716056565515,-9.167296966454709,0.258819045102521,-0.9659258262890682,15.0,2.0,5918.0,10.218079290294767,466.8,372.1333333333333,34.13333333333333,89.73333333333333,73.86666666666666,148.4,158.6,54.93333333333333,22.4,10.666666666666666,394.53333333333336
787,Eddy Villamar,male,1953-10-28 17:11:00,3,1,2,1,11309.0,12983.0,167.0,171.0,1124.0,675.0,1131.0,238.4000000000001,1650.0,86.0,78,0.11832929737157749,1,38.777774744450966,-9.16107441684565,-0.7071067811865477,0.7071067811865472,8.0,4.0,14633.0,10.695764880253247,1413.625,1622.875,20.875,21.375,140.5,84.375,141.375,29.80000000000001,206.25,10.75,1829.125
811,Phd. Beth Navarro,female,1967-01-22 07:46:00,0,0,1,2,104670.0,7096.0,842.0,873.0,217.0,641.0,33.000000000000114,1187.0,308.0,499.0,107,0.5829512451943853,1,38.78470528566145,-9.117762526658565,0.7071067811865476,-0.7071067811865475,7.0,0.0,7404.0,11.726188363003732,14952.857142857143,1013.7142857142857,120.28571428571429,124.71428571428571,31.0,91.57142857142857,4.71428571428573,169.57142857142858,44.0,71.28571428571429,1057.7142857142858
818,Phd. Mary Fennell,female,1952-03-29 03:07:00,7,0,0,4,16998.0,4638.0,322.0,722.0,924.0,1825.0,1838.0,1413.0,467.0,944.0,192,0.2203745649676908,1,38.786858591578415,-9.15622134686236,0.258819045102521,-0.9659258262890682,19.0,7.0,5105.0,10.468716130681411,894.6315789473684,244.10526315789474,16.94736842105263,38.0,48.63157894736842,96.05263157894737,96.73684210526316,74.36842105263158,24.57894736842105,49.68421052631579,268.6842105263158
853,Bsc. Joshua Brown,male,1988-07-20 12:01:00,1,0,1,4,33660.0,4811.0,277.0,487.0,906.0,2440.0,1059.0,292.0,255.0,282.0,361,0.1662911077648505,1,38.71875834734672,-9.166584749969962,-0.7071067811865477,0.7071067811865472,16.0,1.0,5066.0,10.8104549569494,2103.75,300.6875,17.3125,30.4375,56.625,152.5,66.1875,18.25,15.9375,17.625,316.625
937,Msc. Carolyn Richardson,female,1947-09-25 14:05:00,0,2,1,1,17701.0,13954.0,205.0,40.0,337.9999999999999,864.0,1403.0,1076.0,721.0,210.0,235,0.8848549832749362,1,38.762423115868216,-9.14182913919698,-0.25881904510252074,-0.9659258262890683,6.0,2.0,14675.0,10.843260408557487,2950.1666666666665,2325.6666666666665,34.166666666666664,6.666666666666667,56.333333333333314,144.0,233.83333333333334,179.33333333333334,120.16666666666667,35.0,2445.8333333333335
950,Bsc. Shelia Ellis,female,1990-04-13 00:34:00,2,2,0,4,46858.0,3379.0,641.0,667.0,2342.0,1240.0,1076.3999999999999,1562.0,295.0,917.0,372,0.258658580529436,1,38.776777751140536,-9.19231351638816,-0.7071067811865471,-0.7071067811865479,8.0,4.0,3674.0,11.045357267651134,5857.25,422.375,80.125,83.375,292.75,155.0,134.54999999999998,195.25,36.875,114.625,459.25
982,Mary Kraemer,female,1985-07-05 18:48:00,1,0,1,1,4577.0,24402.0,98.0,511.0,1221.0,625.0,379.0,375.0,1178.0,546.0,83,0.2935293677688859,1,38.76160107136395,-9.164081256839996,-0.7071067811865471,-0.7071067811865479,8.0,1.0,25580.0,10.99361393755394,572.125,3050.25,12.25,63.875,152.625,78.125,47.375,46.875,147.25,68.25,3197.5
999,Bsc. Alice Privateer,female,1966-12-30 03:41:00,6,3,2,1,22757.0,5334.0,1709.0,1077.0,1260.0,1710.0,1799.0,1169.0,361.00000000000006,1073.0,352,0.1109840315509199,1,38.77162741473345,-9.131447451921597,0.7071067811865476,-0.7071067811865475,27.0,9.0,5695.0,10.690694130998745,842.8518518518518,197.55555555555554,63.2962962962963,39.888888888888886,46.666666666666664,63.333333333333336,66.62962962962963,43.2962962962963,13.370370370370372,39.74074074074074,210.92592592592592
1023,Msc. Jessie Fray,male,1975-05-30 11:28:00,0,3,0,3,27810.0,4692.0,336.0,798.0,2567.0,1736.0,1542.0,1435.0,431.0,757.0,363,0.3085773015339126,1,38.70778885525256,-9.119348524973612,1.249000902703301e-16,-1.0,23.0,3.0,5123.0,10.762742216027,1209.1304347826087,204.0,14.608695652173912,34.69565217391305,111.6086956521739,75.47826086956522,67.04347826086956,62.391304347826086,18.73913043478261,32.91304347826087,222.7391304347826
1042,Bsc. Wyatt Green,male,1946-04-30 20:09:00,0,2,0,2,35182.0,6089.0,357.0,194.0,2375.0,1461.0,1894.0,765.0,333.0,355.0,288,0.1009948618975357,1,38.71807749383713,-9.192879162266252,0.5,-0.8660254037844387,15.0,2.0,6422.0,10.922840160218605,2345.4666666666667,405.93333333333334,23.8,12.933333333333334,158.33333333333334,97.4,126.26666666666667,51.0,22.2,23.666666666666668,428.1333333333333
1046,Msc. Jewel Wood,female,1945-02-10 17:49:00,0,5,3,2,72273.0,21.0,148.0,206.0,500.0,980.0,1264.0,638.0,284.0,573.0,39,0.4005163852685735,1,38.76058538655234,-9.164772976515314,0.5,-0.8660254037844387,10.0,5.0,305.0,11.254064058326641,7227.3,2.1,14.8,20.6,50.0,98.0,126.4,63.8,28.4,57.3,30.5
1073,Msc. Jonathan Dunn,male,1973-12-05 19:54:00,1,1,0,5,30406.0,1532.0,312.0,935.0,467.0,1009.0,1630.0,2235.0,2073.0,278.0,298,0.6449870678485039,1,38.75328199018811,-9.1254018361297,-0.2588190451025215,0.9659258262890682,25.0,2.0,3605.0,10.702862372693247,1216.24,61.28,12.48,37.4,18.68,40.36,65.2,89.4,82.92,11.12,144.2
1077,Phd. Hazel Mccants,female,1990-03-27 12:59:00,1,0,0,2,52291.0,10611.0,1458.0,800.0,220.0,799.0,1280.0,26.0,756.0,355.0,319,1.0,1,38.72813273368078,-9.133659140892068,-0.2588190451025215,0.9659258262890682,10.0,1.0,11367.0,11.289331812375634,5229.1,1061.1,145.8,80.0,22.0,79.9,128.0,2.6,75.6,35.5,1136.7
1190,Phd. Kyle Goree,male,1984-03-29 02:06:00,1,3,0,2,36971.0,4949.0,655.0,569.0,675.0,2474.0,1606.0,1247.0,475.0,434.0,361,0.3471786122863541,1,38.76788725353054,-9.133046217355028,0.5,-0.8660254037844387,14.0,4.0,5424.0,10.923777874428767,2640.785714285714,353.5,46.785714285714285,40.642857142857146,48.214285714285715,176.71428571428572,114.71428571428571,89.07142857142857,33.92857142857143,31.0,387.42857142857144
1299,Christopher Zander,male,1957-06-14 01:52:00,0,1,2,1,13087.0,12008.0,39.0,210.0,1093.0,1091.0,2422.0,411.0,1684.0,458.0,159,0.2285824004020004,1,38.75627868286474,-9.148972519825962,-0.5000000000000004,0.8660254037844384,9.0,1.0,13692.0,10.740648493234978,1454.111111111111,1334.2222222222222,4.333333333333333,23.333333333333332,121.44444444444444,121.22222222222223,269.1111111111111,45.666666666666664,187.11111111111111,50.888888888888886,1521.3333333333333
1303,Kenneth Beggs,male,1964-01-13 03:14:00,0,1,1,1,9852.0,6352.0,106.0,531.0,790.0,1249.0,620.0,187.0000000000001,3867.0,149.0,73,0.1345488040645731,1,38.74584610530016,-9.180459958072808,-0.7071067811865477,0.7071067811865472,6.0,1.0,10219.0,10.431848529391178,1642.0,1058.6666666666667,17.666666666666668,88.5,131.66666666666666,208.16666666666666,103.33333333333333,31.166666666666686,644.5,24.833333333333332,1703.1666666666667
1338,Msc. Mary Hockensmith,female,1941-11-20 13:44:00,1,0,0,2,44144.0,18915.0,1479.0,67.0,887.0,1323.0,1434.0,1414.0,394.0,327.0,100,0.4518535784538295,1,38.74845767479224,-9.166563946925251,-0.7071067811865471,-0.7071067811865479,8.0,1.0,19309.0,11.404159156177569,5518.0,2364.375,184.875,8.375,110.875,165.375,179.25,176.75,49.25,40.875,2413.625
1342,Bsc. Michael Bowthorpe,male,1986-07-07 05:51:00,3,1,0,1,26853.0,5979.0,1643.0,769.0,2278.0,1615.0,2736.0,743.0,455.0,423.0,467,0.256727079862915,1,38.707944482267656,-9.164180640472456,0.5,-0.8660254037844387,17.0,4.0,6434.0,10.818357275254836,1579.5882352941176,351.70588235294116,96.6470588235294,45.23529411764706,134.0,95.0,160.94117647058823,43.705882352941174,26.764705882352942,24.88235294117647,378.47058823529414
1364,Phd. Willie Banner,male,1994-06-16 20:09:00,3,4,1,5,38347.0,5421.0,382.0,1316.0,2523.0,1131.0,1940.0,352.0,584.0,354.0,271,0.1989356746654311,1,38.78053979462148,-9.146079164513802,0.258819045102521,-0.9659258262890682,4.0,7.0,6005.0,10.974317460191786,9586.75,1355.25,95.5,329.0,630.75,282.75,485.0,88.0,146.0,88.5,1501.25
1377,Bsc. Agnes Lee,female,1950-04-20 21:07:00,4,0,1,6,19204.0,5533.0,436.0,788.0,2574.0,1958.0,1655.0,1518.0,434.0,377.0,196,0.2257589730707902,1,38.738659728697606,-9.170003292054496,0.5381341395361315,-0.7527605765303287,15.0,4.0,5967.0,10.607698305452052,1280.2666666666667,368.8666666666667,29.066666666666666,52.53333333333333,171.6,130.53333333333333,110.33333333333333,101.2,28.933333333333334,25.133333333333333,397.8
1390,Msc. Lourdes Vanderweide,female,1979-01-09 23:18:00,1,0,1,6,13874.0,664.0,1806.0,596.0,183.0000000000001,113.0,127.99999999999989,2134.0,1765.0,348.0,171,0.1835989694908988,1,38.75802606849745,-9.07234564026042,0.7071067811865476,-0.7071067811865475,7.0,1.0,2429.0,10.087515985121769,1982.0,94.85714285714286,258.0,85.14285714285714,26.14285714285716,16.142857142857142,18.28571428571427,304.85714285714283,252.14285714285714,49.714285714285715,347.0
1553,Phd. Ted Davey,male,1986-07-08 05:47:00,5,4,1,5,26058.0,6279.0,535.0,1760.0,725.0,1738.0,1885.0,907.8,512.0,98.0,315,0.1967501128814212,1,38.778705067021264,-9.143992458737516,0.8660254037844387,-0.4999999999999998,16.0,9.0,6791.0,10.764049906405042,1628.625,392.4375,33.4375,110.0,45.3125,108.625,117.8125,56.7375,32.0,6.125,424.4375
1586,Msc. Jessica Hopson,female,1948-12-22 20:43:00,2,1,3,5,19611.0,3084.0,845.0,706.0,31.0,800.0,14.0,654.0,1981.0,251.0,203,0.3245954539519479,1,38.79793905914986,-9.204773976712202,-0.25881904510252074,-0.9659258262890683,13.0,3.0,5065.0,10.405565022544408,1508.5384615384614,237.23076923076923,65.0,54.30769230769231,2.3846153846153846,61.53846153846154,1.0769230769230769,50.30769230769231,152.3846153846154,19.307692307692307,389.61538461538464
1610,Phd. Bette Thompson,female,1959-08-02 20:52:00,4,3,1,1,46884.0,5302.0,355.0,839.0,1304.0,1292.0,1800.4,1034.0,501.0,812.0,243,0.2945733921269627,1,38.77527194909732,-9.190709062216834,0.258819045102521,-0.9659258262890682,21.0,7.0,5803.0,11.09630941556453,2232.5714285714284,252.47619047619048,16.904761904761905,39.95238095238095,62.095238095238095,61.523809523809526,85.73333333333333,49.23809523809524,23.857142857142858,38.666666666666664,276.3333333333333
1612,Msc. Arnold Jacques,male,1956-07-27 10:27:00,3,3,0,4,22066.0,4749.0,1598.0,1381.0,2278.0,1664.0,1733.0,777.0,287.0,51.0,371,0.1754940812718664,1,38.735860092661525,-9.1242306489605,0.7071067811865476,-0.7071067811865475,14.0,6.0,5036.0,10.636360126569123,1576.142857142857,339.2142857142857,114.14285714285714,98.64285714285714,162.71428571428572,118.85714285714286,123.78571428571429,55.5,20.5,3.642857142857143,359.7142857142857
1660,Phd. Valerie Ward,female,1979-01-09 05:58:00,1,0,2,3,33773.0,3498.0,482.0,584.0,842.0,1437.0,1061.0,1575.0,328.0,513.0,556,0.7580224638301811,1,38.74869269117023,-9.188657838842056,0.258819045102521,-0.9659258262890682,13.0,1.0,3826.0,10.777288232789331,2597.923076923077,269.0769230769231,37.07692307692308,44.92307692307692,64.76923076923077,110.53846153846153,81.61538461538461,121.15384615384616,25.23076923076923,39.46153846153846,294.3076923076923
1679,Clyde Henshaw,male,1996-04-18 16:49:00,0,1,0,1,10404.0,19338.0,227.0,1181.0,834.0,1183.0,1523.0,409.0,476.0,234.0,45,0.271879304192693,1,38.77618528124288,-9.181072344696103,-0.9659258262890683,0.25881904510252024,9.0,1.0,19814.0,10.926370041778855,1156.0,2148.6666666666665,25.22222222222222,131.22222222222223,92.66666666666667,131.44444444444446,169.22222222222223,45.44444444444444,52.888888888888886,26.0,2201.5555555555557
1800,Msc. Vivian Robinson,female,1980-09-23 00:43:00,1,0,2,5,32119.0,4449.0,1070.0,1023.0,994.0,1393.0,1783.0,711.0,293.0,831.0,574,0.2586677067476392,1,38.78628075723957,-9.153649053614448,0.258819045102521,-0.9659258262890682,17.0,1.0,4742.0,10.807887872816934,1889.3529411764705,261.70588235294116,62.94117647058823,60.1764705882353,58.470588235294116,81.94117647058823,104.88235294117646,41.8235294117647,17.235294117647058,48.88235294117647,278.94117647058823
1828,Phd. Catarina Feurtado,female,1955-04-05 03:46:00,0,1,1,2,3841.0,10840.0,442.0,197.0,151.0,636.0,717.0,1239.0,401.00000000000006,378.0,600,0.2449562012900577,1,38.71812763484471,-9.13206951657424,-0.7071067811865471,-0.7071067811865479,8.0,1.0,11241.0,10.311748747946293,480.125,1355.0,55.25,24.625,18.875,79.5,89.625,154.875,50.12500000000001,47.25,1405.125
1911,George Peel,male,1949-01-30 23:06:00,0,0,0,1,3043.0,11098.0,178.0,390.0,1096.0,1430.0,2322.0,52.0,1420.0,231.0,143,0.2439158728223383,1,38.7594878733271,-9.169534607768185,-0.9999999999999999,-1.6653345369377348e-16,11.0,0.0,12518.0,10.427594586608032,276.6363636363636,1008.9090909090909,16.181818181818183,35.45454545454545,99.63636363636364,130.0,211.0909090909091,4.7272727272727275,129.0909090909091,21.0,1138.0
1920,Phd. John Pell,male,1944-12-30 20:12:00,1,1,1,8,19848.0,6851.0,1846.0,750.0,2559.0,655.0,1229.0,1013.0,1370.0,378.0,331,0.1861027465591774,1,38.770352437959765,-9.128425004002905,0.258819045102521,-0.9659258262890682,14.0,2.0,8221.0,10.70819846893854,1417.7142857142858,489.35714285714283,131.85714285714286,53.57142857142857,182.78571428571428,46.785714285714285,87.78571428571429,72.35714285714286,97.85714285714286,27.0,587.2142857142857
1946,Phd. Marc Hampton,male,1958-01-09 02:35:00,2,4,1,2,26164.0,5635.0,460.0,1319.0,3138.0,1068.0,1792.0,571.0,315.0,235.0,184,0.28479225220485,1,38.74211762757562,-9.127795922476167,0.9659258262890683,-0.25881904510252063,12.0,6.0,5950.0,10.750385332901992,2180.3333333333335,469.5833333333333,38.333333333333336,109.91666666666667,261.5,89.0,149.33333333333334,47.583333333333336,26.25,19.583333333333332,495.8333333333333
1955,Msc. Thomas Cassem,male,1960-03-23 16:21:00,3,1,2,4,17086.0,5317.0,185.0,889.0,2111.0,753.0,812.0,1084.0,283.0,557.0,522,0.1332778851564348,1,38.75763563219081,-9.134432026357551,0.5,-0.8660254037844387,7.0,4.0,5600.0,10.453860759104618,2440.8571428571427,759.5714285714286,26.428571428571427,127.0,301.57142857142856,107.57142857142857,116.0,154.85714285714286,40.42857142857143,79.57142857142857,800.0
1963,Msc. David Oleary,male,1947-03-14 03:18:00,1,1,1,4,45810.0,1138.0,203.0,761.0,1183.0,773.0,29.0,2370.0,247.0,329.0,485,0.3444869220409498,1,38.75642232589647,-9.144974499617003,-0.25881904510252074,-0.9659258262890683,16.0,2.0,1385.0,10.900971099687215,2863.125,71.125,12.6875,47.5625,73.9375,48.3125,1.8125,148.125,15.4375,20.5625,86.5625
2025,Bsc. Martin Straton,male,1958-08-28 08:01:00,5,1,0,3,3953.0,4573.0,992.0,756.0,3207.0,2317.0,1294.0,265.0,283.0,665.0,421,0.1324674863665944,1,38.71914112470943,-9.11776207490602,0.258819045102521,-0.9659258262890682,5.0,6.0,4856.0,10.050268283744323,790.6,914.6,198.4,151.2,641.4,463.4,258.8,53.0,56.6,133.0,971.2
2029,Phd. Lucy Mayberry,female,1983-07-18 05:23:00,1,4,1,4,7628.0,4897.0,1573.0,519.0,2688.0,1942.0,1245.0,1239.0,328.0,650.0,302,0.03422384406138207,1,38.78065603796322,-9.125563128417529,0.7071067811865476,-0.7071067811865475,17.0,5.0,5225.0,10.237635661893249,448.70588235294116,288.05882352941177,92.52941176470588,30.529411764705884,158.11764705882354,114.23529411764706,73.23529411764706,72.88235294117646,19.294117647058822,38.23529411764706,307.3529411764706
2063,Bsc. Anthony Sellers,male,1968-10-03 13:14:00,1,2,0,6,37097.0,5626.0,675.0,886.0,2187.0,1332.0,1823.0,797.0,182.0,531.0,499,0.1189601120173105,1,38.78387421070209,-9.155936799945213,0.7071067811865476,-0.7071067811865475,17.0,3.0,5808.0,10.949841168708451,2182.176470588235,330.94117647058823,39.705882352941174,52.11764705882353,128.64705882352942,78.3529411764706,107.23529411764706,46.88235294117647,10.705882352941176,31.235294117647058,341.6470588235294
2064,Bsc. Gerald Maisey,male,1992-08-15 12:27:00,2,1,2,2,7033.0,1950.0,155.0,229.99999999999994,283.9999999999999,451.0,347.0,10.0,1573.0,406.0,8,1.0,1,38.748557026844544,-9.155872981388134,0.7071067811865476,-0.7071067811865475,6.0,3.0,3523.0,9.678028823264478,1172.1666666666667,325.0,25.833333333333332,38.33333333333332,47.333333333333314,75.16666666666667,57.833333333333336,1.6666666666666667,262.1666666666667,67.66666666666667,587.1666666666666
2105,Msc. Robert Liv,male,1997-03-10 03:25:00,1,1,2,2,7405.0,17482.0,287.0,447.0,751.0,687.0,1179.0,797.0,513.0,169.99999999999997,87,1.0,1,38.718091520066665,-9.184196197990405,0.8660254037844387,-0.4999999999999998,1.0,2.0,17995.0,10.772980134861644,7405.0,17482.0,287.0,447.0,751.0,687.0,1179.0,797.0,513.0,169.99999999999997,17995.0
2112,Phd. Patricia Ferguson,female,1979-11-03 03:53:00,2,1,2,5,28478.0,6621.0,1258.0,1088.0,2346.0,2534.0,494.0,1302.0,444.99999999999994,426.0,343,0.08329053391065339,1,38.7860869475945,-9.133292542141891,0.5,-0.8660254037844387,14.0,3.0,7066.0,10.860132969758613,2034.142857142857,472.92857142857144,89.85714285714286,77.71428571428571,167.57142857142858,181.0,35.285714285714285,93.0,31.78571428571428,30.428571428571427,504.7142857142857
2143,Debra Rivera,female,1944-01-04 19:16:00,0,1,0,2,8548.0,26291.0,159.0,67.0,989.0,690.0,774.0,324.0,1110.0,237.0,159,0.1029772282757,1,38.73385498409182,-9.154449720223388,0.8660254037844387,-0.4999999999999998,6.0,1.0,27401.0,11.10632471226177,1424.6666666666667,4381.833333333333,26.5,11.166666666666666,164.83333333333334,115.0,129.0,54.0,185.0,39.5,4566.833333333333
2161,Msc. Val Farmer,female,1951-11-21 10:10:00,3,0,0,2,22743.0,5882.0,164.0,895.0,1697.0,1550.0,1340.0,1187.0,425.0,128.0,497,0.014209981749791711,1,38.72554407759896,-9.117013826548645,0.5,-0.8660254037844387,23.0,3.0,6307.0,10.652991436763397,988.8260869565217,255.7391304347826,7.130434782608695,38.91304347826087,73.78260869565217,67.3913043478261,58.26086956521739,51.608695652173914,18.47826086956522,5.565217391304348,274.2173913043478
2181,Bsc. Joshua Singleton,male,1957-03-26 19:37:00,1,2,3,2,61197.0,2683.0,249.0,373.0,523.0,947.0,1617.0,719.0,59.0,487.0,64,0.1720827529451181,1,38.75026415169015,-9.192775522843116,-0.9659258262890683,-0.25881904510252063,12.0,3.0,2742.0,11.17880845262959,5099.75,223.58333333333334,20.75,31.083333333333332,43.583333333333336,78.91666666666667,134.75,59.916666666666664,4.916666666666667,40.583333333333336,228.5
2252,Bsc. Marjorie Hawkins,female,1950-01-16 21:38:00,4,5,1,1,31141.0,6052.0,417.0,1117.0,2118.0,1110.0,807.2,1038.0,730.4,515.0,555,0.1255202960276452,1,38.74872494560108,-9.11811808969304,0.7071067811865476,-0.7071067811865475,17.0,9.0,6782.4,10.855705117152361,1831.8235294117646,356.0,24.529411764705884,65.70588235294117,124.58823529411765,65.29411764705883,47.48235294117647,61.05882352941177,42.96470588235294,30.294117647058822,398.9647058823529
2262,Phd. Cindy Riles,female,2000-05-26 01:51:00,0,1,0,5,37155.0,2831.0,524.0,548.0,1193.0,685.0,1416.0,848.0,116.0,992.0,388,0.02558835929025932,1,38.76298984963332,-9.12202283103239,0.8660254037844387,-0.4999999999999998,7.0,1.0,2947.0,10.804786466591047,5307.857142857143,404.42857142857144,74.85714285714286,78.28571428571429,170.42857142857142,97.85714285714286,202.28571428571428,121.14285714285714,16.571428571428573,141.71428571428572,421.0
2304,Bsc. Charles Gonzales,male,1984-03-24 19:03:00,1,4,1,5,32362.0,4934.0,1472.0,394.0,1343.0,1071.0,1248.0,1309.0,460.0,547.0,497,0.1836689521457383,1,38.74900476499725,-9.191772260487848,0.8660254037844387,-0.4999999999999998,20.0,5.0,5394.0,10.830421444508763,1618.1,246.7,73.6,19.7,67.15,53.55,62.4,65.45,23.0,27.35,269.7
2390,Bsc. Rodney Begay,male,1991-09-10 02:33:00,1,1,1,4,50805.0,6148.0,269.0,1152.0,542.0,869.0,1219.0,1591.0,2314.0,291.0,492,0.4113571954406366,0,38.71166854490715,-9.152937809827035,-0.49999999999999967,-0.8660254037844388,14.0,2.0,8462.0,11.20725591683737,3628.9285714285716,439.14285714285717,19.214285714285715,82.28571428571429,38.714285714285715,62.07142857142857,87.07142857142857,113.64285714285714,165.28571428571428,20.785714285714285,604.4285714285714
2442,Bsc. Jerry Alonzo,male,1979-07-17 09:43:00,0,0,1,2,38385.0,12140.0,1101.0,429.0,16.0,893.0,479.0,831.0,2493.0,331.0,173,0.5500531004337328,1,38.77699956270614,-9.187264912595474,-0.49999999999999967,-0.8660254037844388,12.0,0.0,14633.0,11.180692231068315,3198.75,1011.6666666666666,91.75,35.75,1.3333333333333333,74.41666666666667,39.916666666666664,69.25,207.75,27.583333333333332,1219.4166666666667
2486,Msc. Ola Bass,female,1940-06-13 14:12:00,1,1,0,3,15455.0,4773.6,340.0,801.0,960.0,1535.0,1206.0,1152.0,1959.0,388.0,131,0.8568981920452721,1,38.7821552186694,-9.150507469611648,0.7071067811865476,-0.7071067811865475,16.0,2.0,6732.6,10.471728890370857,965.9375,298.35,21.25,50.0625,60.0,95.9375,75.375,72.0,122.4375,24.25,420.7875
2508,Mavis Haslam,female,1980-01-24 13:43:00,0,0,2,1,8214.0,27607.0,98.0,400.0,1559.0,1228.0,1219.0,405.0,1890.0,691.0,216,0.0693112729043634,1,38.733279172769066,-9.171548216306936,-0.5000000000000004,0.8660254037844384,7.0,0.0,29497.0,11.195594852917294,1173.4285714285713,3943.8571428571427,14.0,57.142857142857146,222.71428571428572,175.42857142857142,174.14285714285714,57.857142857142854,270.0,98.71428571428571,4213.857142857143
2530,Bsc. Kenneth Lindsey,male,1968-10-28 03:22:00,1,0,1,5,53613.0,5235.0,266.40000000000003,431.0,870.0,959.0,248.0,883.0,261.0,429.0,457,0.2915453015139322,1,38.75196228263176,-9.173821144568503,-0.25881904510252074,-0.9659258262890683,19.0,1.0,5496.0,11.13739384618119,2821.7368421052633,275.5263157894737,14.021052631578948,22.68421052631579,45.78947368421053,50.473684210526315,13.052631578947368,46.473684210526315,13.736842105263158,22.57894736842105,289.2631578947368
2533,James Allen,male,1957-06-24 23:23:00,1,0,2,1,9069.0,20842.999999999996,145.0,452.0,1130.0,196.0,1258.0,221.0,1061.0,328.0,113,0.1839929302728661,1,38.72341923528329,-9.152300145406976,-0.8660254037844384,-0.5000000000000004,7.0,1.0,21903.999999999996,10.943905596959512,1295.5714285714287,2977.571428571428,20.714285714285715,64.57142857142857,161.42857142857142,28.0,179.71428571428572,31.571428571428573,151.57142857142858,46.857142857142854,3129.1428571428564
2550,Bsc. Morgan Nash,male,1978-11-11 23:12:00,1,1,1,4,16710.0,4372.0,383.0,120.0,1248.0,391.0,1508.0,379.0,228.0,1211.0,199,0.11537580799529001,1,38.78053137065153,-9.171086177381806,-0.9659258262890683,-0.25881904510252063,14.0,2.0,4600.0,10.346601626429049,1193.5714285714287,312.2857142857143,27.357142857142858,8.571428571428571,89.14285714285714,27.928571428571427,107.71428571428571,27.071428571428573,16.285714285714285,86.5,328.57142857142856
2555,Msc. Courtney Helgason,female,1979-12-15 09:37:00,0,0,1,2,76000.0,5806.0,16.0,455.0,573.0,752.0,322.0,447.0,579.0,290.0,377,0.768638825049626,0,38.768165561501775,-9.121713634615285,-0.9659258262890683,0.25881904510252024,5.0,0.0,6385.0,11.425470353181236,15200.0,1161.2,3.2,91.0,114.6,150.4,64.4,89.4,115.8,58.0,1277.0
2596,Phd. Raymond Willis,male,1978-07-31 14:17:00,0,1,0,1,62068.0,5974.0,345.0,613.0,421.0,908.0,1071.0,698.0,145.0,72.0,365,0.49988383536217956,1,38.723446821899714,-9.12379576220683,0.5,-0.8660254037844387,11.0,1.0,6119.0,11.27002553529034,5642.545454545455,543.0909090909091,31.363636363636363,55.72727272727273,38.27272727272727,82.54545454545455,97.36363636363636,63.45454545454545,13.181818181818182,6.545454545454546,556.2727272727273
2700,Harold Roffe,male,1964-06-21 22:05:00,0,0,1,2,1549.0,19255.999999999996,21.0,613.0,1257.0,708.0,1076.0,165.0,1159.0,783.0,122,0.2099992555459922,1,38.73023453201485,-9.159273198070853,-0.8660254037844386,0.5000000000000002,11.0,0.0,20414.999999999996,10.757966708442396,140.8181818181818,1750.5454545454543,1.9090909090909092,55.72727272727273,114.27272727272727,64.36363636363636,97.81818181818181,15.0,105.36363636363636,71.18181818181819,1855.9090909090905
2736,Msc. Gertrude Piccinini,female,1969-04-27 19:37:00,3,3,3,2,38908.0,2804.0,296.0,986.0,1288.0,892.0,1571.0,747.0,1539.0,413.0,388,0.08825336145580748,1,38.75203603846033,-9.179325346116576,0.258819045102521,-0.9659258262890682,11.0,6.0,4343.0,10.89280567294376,3537.090909090909,254.9090909090909,26.90909090909091,89.63636363636364,117.0909090909091,81.0909090909091,142.8181818181818,67.9090909090909,139.9090909090909,37.54545454545455,394.8181818181818
2775,Msc. Joan Parks,female,1943-12-17 06:28:00,0,3,0,1,33880.0,5086.0,713.0,785.0,2356.0,1933.0,1410.0,639.0,452.0,336.0,278,0.13952025657381645,1,38.77196738477532,-9.145408696680018,0.258819045102521,-0.9659258262890682,10.0,3.0,5538.0,10.880478197509905,3388.0,508.6,71.3,78.5,235.6,193.3,141.0,63.9,45.2,33.6,553.8
2779,Phd. Gerardo Fletcher,male,1948-06-17 14:15:00,2,1,3,2,13489.0,76.0,572.0,398.0,391.0,1036.0,1977.0,718.0,1211.6,946.0,96,0.36774114799264157,1,38.76377193695056,-9.146635341677229,-0.7071067811865477,0.7071067811865472,17.0,3.0,1287.6,10.00347767340395,793.4705882352941,4.470588235294118,33.64705882352941,23.41176470588235,23.0,60.94117647058823,116.29411764705883,42.23529411764706,71.27058823529411,55.64705882352941,75.74117647058823
2792,Msc. Jason Esquivel,male,1991-01-18 00:33:00,1,0,0,4,74138.0,2870.0,310.0,901.0,727.0,1235.0,1067.6,955.0,477.0,242.0,361,0.2130486938830605,1,38.71526225608119,-9.14890891225948,-0.2588190451025215,0.9659258262890682,9.0,1.0,3347.0,11.365244146955446,8237.555555555555,318.8888888888889,34.44444444444444,100.11111111111111,80.77777777777777,137.22222222222223,118.6222222222222,106.11111111111111,53.0,26.88888888888889,371.8888888888889
2833,Jessica Mcintosh,female,1997-08-10 23:15:00,0,0,1,1,13370.0,12859.0,53.0,1489.0,1289.0,360.0,1877.0,52.999999999999886,2201.0,226.0,127,0.2448873932053462,1,38.77526120530202,-9.164474779088946,-0.6381341395361315,0.19318516525781343,1.0,0.0,15060.0,10.796263977345216,13370.0,12859.0,53.0,1489.0,1289.0,360.0,1877.0,52.999999999999886,2201.0,226.0,15060.0
2884,Msc. Richard Romanelli,male,1953-01-13 11:46:00,1,1,1,6,76138.0,2830.0000000000005,490.0,747.0,350.9999999999999,1202.0,660.0,1518.0,171.0,365.0,295,0.898904733785679,1,38.72676566358372,-9.176323527227812,0.8660254037844387,-0.4999999999999998,21.0,2.0,3001.0000000000005,11.379096885332878,3625.6190476190477,134.7619047619048,23.333333333333332,35.57142857142857,16.714285714285708,57.23809523809524,31.428571428571427,72.28571428571429,8.142857142857142,17.38095238095238,142.90476190476193
2911,Msc. Donald Nichols,male,1953-05-14 13:55:00,0,1,1,1,45174.0,15869.0,301.0,396.0,906.0,886.0,1961.0,649.0,450.0,396.0,86,0.09037182807156469,1,38.78111500039564,-9.15303395615555,0.9659258262890683,-0.25881904510252063,5.0,1.0,16319.0,11.330299861958906,9034.8,3173.8,60.2,79.2,181.2,177.2,392.2,129.8,90.0,79.2,3263.8
2927,Msc. Kenneth White,male,1993-11-10 15:52:00,1,0,0,3,15118.999999999998,23912.0,309.0,488.0,773.0,743.0,638.0,689.0,502.0,470.0,223,0.28300124001684895,1,38.771831932970535,-9.134915012844994,0.5,-0.8660254037844387,7.0,1.0,24414.0,11.128115561787098,2159.8571428571427,3416.0,44.142857142857146,69.71428571428571,110.42857142857143,106.14285714285714,91.14285714285714,98.42857142857143,71.71428571428571,67.14285714285714,3487.714285714286
2978,Msc. Eugene Bohannon,male,1959-11-23 11:25:00,1,5,3,3,28364.0,2207.0,132.0,480.0,1386.0,813.0,854.0,1087.0,1394.0,654.0,132,0.3481518563854976,1,38.77480658494846,-9.155892282769145,0.8660254037844387,-0.4999999999999998,13.0,6.0,3601.0,10.620668592170619,2181.846153846154,169.76923076923077,10.153846153846153,36.92307692307692,106.61538461538461,62.53846153846154,65.6923076923077,83.61538461538461,107.23076923076923,50.30769230769231,277.0
3073,Phd. Shawn Sanders,male,1979-10-12 22:15:00,1,2,0,1,18594.0,937.0,740.0,136.0,93.0,547.0,446.0,117.0,1350.0,561.0,100,0.1931234943944806,1,38.75099412386303,-9.161218542446036,0.9659258262890683,-0.25881904510252063,14.0,3.0,2287.0,10.158478547289457,1328.142857142857,66.92857142857143,52.857142857142854,9.714285714285714,6.642857142857143,39.07142857142857,31.857142857142858,8.357142857142858,96.42857142857143,40.07142857142857,163.35714285714286
3099,Bsc. Connie Cronan,female,1960-10-06 07:11:00,1,0,1,5,31639.0,3389.9999999999995,421.0,1522.0,624.0,1090.0,1935.0,1298.0,245.0,494.0,298,0.7624540134205806,1,38.73659513539541,-9.16875360322306,-0.2588190451025215,0.9659258262890682,21.0,1.0,3634.9999999999995,10.742767642044035,1506.6190476190477,161.42857142857142,20.047619047619047,72.47619047619048,29.714285714285715,51.904761904761905,92.14285714285714,61.80952380952381,11.666666666666666,23.523809523809526,173.09523809523807
3129,Phd. George Mccain,male,1947-10-05 03:20:00,3,4,1,5,28125.0,7144.0,1223.0,1160.0,1028.0,2154.0,651.0,366.0,365.99999999999994,544.0,590,0.1512442105172591,1,38.76319736401387,-9.152326604335594,0.7071067811865476,-0.7071067811865475,13.0,7.0,7510.0,10.825203541055348,2163.4615384615386,549.5384615384615,94.07692307692308,89.23076923076923,79.07692307692308,165.69230769230768,50.07692307692308,28.153846153846153,28.15384615384615,41.84615384615385,577.6923076923077
3169,Msc. Olive Alpers,female,1972-02-01 10:04:00,2,3,1,3,51338.0,3492.0000000000005,327.0,682.0,1760.0,1081.0,1846.0,33.0,999.0,538.0,306,0.1534545046844397,1,38.73687536343425,-9.188150905343557,1.249000902703301e-16,-1.0,12.0,5.0,4491.0,11.106279660113902,4278.166666666667,291.00000000000006,27.25,56.833333333333336,146.66666666666666,90.08333333333333,153.83333333333334,2.75,83.25,44.833333333333336,374.25
3172,Bsc. Angelica Keitt,female,1957-02-07 21:35:00,3,0,1,1,15472.0,6052.0,636.0,551.0,1630.0,2061.0,2460.0,310.0,313.0,431.0,466,0.4290831927296524,0,38.72683930870125,-9.136773866364384,0.8660254037844387,-0.4999999999999998,16.0,3.0,6365.0,10.499077029501269,967.0,378.25,39.75,34.4375,101.875,128.8125,153.75,19.375,19.5625,26.9375,397.8125
3184,Msc. William Heiliger,male,1998-01-26 08:33:00,7,2,3,5,7442.0,5408.0,432.0,1145.0,780.0,1058.0,2465.0,1421.0,461.0,439.0,242,0.2578043143185684,1,38.757735053292514,-9.185301828614197,0.7071067811865476,-0.7071067811865475,5.0,9.0,5869.0,10.200661930171254,1488.4,1081.6,86.4,229.0,156.0,211.6,493.0,284.2,92.2,87.8,1173.8
3190,Msc. Cruz Popek,female,1948-11-13 04:35:00,2,1,0,5,67641.0,3451.9999999999995,271.0,566.0,731.0,995.0,1738.0,436.0,281.0,410.4,295,0.01714416328719981,1,38.735140804277954,-9.12440634293356,0.8660254037844387,-0.4999999999999998,20.0,3.0,3732.9999999999995,11.292969328448036,3382.05,172.59999999999997,13.55,28.3,36.55,49.75,86.9,21.8,14.05,20.52,186.64999999999998
3214,Phd. Lona Toth,female,1985-01-09 05:24:00,1,0,1,1,52355.0,5069.0,933.0,670.0,2040.0,1409.0,1950.0,1549.0,530.0,204.0,235,0.245706913899606,1,38.76871505938202,-9.15647639631621,0.258819045102521,-0.9659258262890682,13.0,1.0,5599.0,11.1887038817275,4027.3076923076924,389.9230769230769,71.76923076923077,51.53846153846154,156.92307692307693,108.38461538461539,150.0,119.15384615384616,40.76923076923077,15.692307692307692,430.6923076923077
3217,Robert Borgmeyer,male,1961-05-18 13:41:00,1,0,1,2,9263.0,18494.0,9.0,1261.0,1387.0,1117.0,1208.0,190.0,1365.0,74.0,42,0.2094217451927554,1,38.74507199854629,-9.1643870542765,-0.7071067811865477,0.7071067811865472,8.0,1.0,19859.0,10.90095265919928,1157.875,2311.75,1.125,157.625,173.375,139.625,151.0,23.75,170.625,9.25,2482.375
3265,Msc. Alina Carter,female,1975-04-11 09:33:00,1,3,1,1,23254.0,5230.0,598.0,1519.0,2292.0,1885.0,659.0,1589.0,343.0,581.0,190,0.2749768831105607,1,38.73263840712357,-9.157355939376547,0.5,-0.8660254037844387,17.0,4.0,5573.0,10.681067789070903,1367.8823529411766,307.6470588235294,35.1764705882353,89.3529411764706,134.8235294117647,110.88235294117646,38.76470588235294,93.47058823529412,20.176470588235293,34.1764705882353,327.8235294117647
3270,Phd. Tangela Howlin,female,1963-06-27 00:40:00,1,2,1,1,20708.0,2297.0,76.0,92.0,461.0,1192.0,1412.0,277.0,1063.0,587.0,209,0.6950820424564732,1,38.78677367323696,-9.143003612174883,-0.7071067811865477,0.7071067811865472,9.0,3.0,3360.0,10.358567881186488,2300.8888888888887,255.22222222222223,8.444444444444445,10.222222222222221,51.22222222222222,132.44444444444446,156.88888888888889,30.77777777777778,118.11111111111111,65.22222222222223,373.3333333333333
3376,Msc. Theresa Matthews,female,1974-05-14 20:08:00,2,1,0,2,68762.0,2703.0,188.0,51.0,947.0,1020.0,572.0,1068.0,538.0,323.0,238,1.0,1,38.73039143815164,-9.176039424325738,-0.8660254037844384,-0.5000000000000004,5.0,3.0,3241.0,11.282429954110393,13752.4,540.6,37.6,10.2,189.4,204.0,114.4,213.6,107.6,64.6,648.2
3388,Phd. Erica Scott,female,1950-01-22 06:52:00,1,2,1,4,13005.0,197.0,319.0,1451.0,237.0000000000001,676.0,1276.0,2228.0,381.0,326.0,264,0.5102963113371158,1,38.7517907466838,-9.174078054492314,-0.49999999999999967,-0.8660254037844388,16.0,3.0,578.0,9.936680519891892,812.8125,12.3125,19.9375,90.6875,14.812500000000007,42.25,79.75,139.25,23.8125,20.375,36.125
3492,Msc. Richard Zhang,male,1976-12-08 16:27:00,1,0,2,5,84560.0,2388.0,196.0,763.0,741.0,1169.0,1299.0,203.0,209.0,319.0,381,0.2258564598970429,1,38.75120033097283,-9.178246745590236,-0.9659258262890683,0.25881904510252024,15.0,1.0,2597.0,11.45577293346592,5637.333333333333,159.2,13.066666666666666,50.86666666666667,49.4,77.93333333333334,86.6,13.533333333333333,13.933333333333334,21.266666666666666,173.13333333333333
3528,Msc. Marcy Javier,female,1945-11-06 21:23:00,3,2,1,3,23345.0,4335.0,1385.0,367.0,1446.0,1909.0,1168.0,709.0,2280.0,531.0,432,0.237814494989072,1,38.725670108123154,-9.143623396708396,0.7071067811865476,-0.7071067811865475,19.0,5.0,6615.0,10.694010958974793,1228.6842105263158,228.1578947368421,72.89473684210526,19.31578947368421,76.10526315789474,100.47368421052632,61.473684210526315,37.31578947368421,120.0,27.94736842105263,348.1578947368421
3588,Msc. Gary Louque,male,1963-01-07 06:40:00,6,1,2,5,15230.0,5700.0,498.0,311.00000000000006,2366.0,988.0,770.0,774.0,351.0,82.0,266,0.1993087393036559,1,38.72010843494438,-9.166692641101797,0.8660254037844387,-0.4999999999999998,18.0,7.0,6051.0,10.407952993149436,846.1111111111111,316.6666666666667,27.666666666666668,17.277777777777782,131.44444444444446,54.888888888888886,42.77777777777778,43.0,19.5,4.555555555555555,336.1666666666667
3589,Msc. Donald Biro,male,1997-02-08 07:14:00,4,0,1,2,28844.0,5182.0,787.0,785.0,1531.0,1183.0,2411.0,898.0,267.0,586.0,454,0.201721381498998,1,38.78034823585599,-9.131333228643504,0.5,-0.8660254037844387,1.0,4.0,5449.0,10.77737170175979,28844.0,5182.0,787.0,785.0,1531.0,1183.0,2411.0,898.0,267.0,586.0,5449.0
3635,Phd. Jillian Nail,female,1970-07-16 05:49:00,5,3,2,1,17154.0,4425.0,738.0,287.0,1678.0,1798.0,2316.0,233.0,327.0,296.0,517,0.1460996527661799,1,38.70842372589559,-9.131916514683288,0.258819045102521,-0.9659258262890682,8.0,8.0,4752.0,10.43426285160974,2144.25,553.125,92.25,35.875,209.75,224.75,289.5,29.125,40.875,37.0,594.0
3691,Phd. Walter Smith,male,1968-02-17 21:55:00,3,2,0,4,32228.0,5672.0,742.0,932.0,1503.1999999999998,2375.0,1570.0,1170.0,498.0,699.0,318,0.1291939303192245,1,38.76493936306307,-9.140718236146856,0.258819045102521,-0.9659258262890682,17.0,5.0,6170.0,10.888561533928085,1895.764705882353,333.6470588235294,43.64705882352941,54.8235294117647,88.42352941176469,139.7058823529412,92.3529411764706,68.82352941176471,29.294117647058822,41.11764705882353,362.94117647058823
3720,Msc. Robert Elder,male,1964-09-18 23:42:00,2,0,0,2,29946.0,5673.0,583.2,549.0,1087.0,1807.0,2644.0,1248.0,484.0,280.0,153,0.4285573937934076,1,38.77783221116449,-9.121907180559626,0.7071067811865476,-0.7071067811865475,20.0,2.0,6157.0,10.828920367927475,1497.3,283.65,29.160000000000004,27.45,54.35,90.35,132.2,62.4,24.2,14.0,307.85
3739,Msc. Elizabeth Caviness,female,1971-06-07 04:41:00,3,0,1,2,41400.0,5985.0,1329.0,608.0,2384.0,1899.0,1515.0,890.0,267.0,878.0,360,0.3226168128472513,1,38.72187530127525,-9.129183734511075,0.258819045102521,-0.9659258262890682,12.0,3.0,6252.0,11.057345315430217,3450.0,498.75,110.75,50.666666666666664,198.66666666666666,158.25,126.25,74.16666666666667,22.25,73.16666666666667,521.0
3742,Msc. Susan Beasley,female,1962-06-06 14:18:00,1,0,1,4,50470.0,5648.0,332.0,741.0,760.0,746.0,843.0,1083.0,2320.0,349.0,524,0.1522106225470756,1,38.78146825495448,-9.154679884129015,-0.5000000000000004,0.8660254037844384,19.0,1.0,7968.0,11.174104472179522,2656.315789473684,297.2631578947368,17.473684210526315,39.0,40.0,39.26315789473684,44.36842105263158,57.0,122.10526315789474,18.36842105263158,419.36842105263156
3847,Phd. Bonnie Abney,female,1992-05-14 01:03:00,0,3,1,6,46737.0,4404.0,644.0,495.0,2241.0,1377.0,1571.0,417.0,359.00000000000006,296.0,177,0.1545194153424929,1,38.74022051456939,-9.152742770553306,0.5,-0.8660254037844387,16.0,3.0,4763.0,11.055719593954354,2921.0625,275.25,40.25,30.9375,140.0625,86.0625,98.1875,26.0625,22.437500000000004,18.5,297.6875
3895,Phd. Brian Thomas,male,1997-05-29 00:08:00,1,1,1,5,67759.0,5474.0,208.0,849.0,526.0,575.0,1426.0,1282.0,172.0,792.0,246,0.7695717506054491,1,38.708728061115615,-9.153374408824808,-0.5000000000000004,0.8660254037844384,1.0,2.0,5646.0,11.346988937425596,67759.0,5474.0,208.0,849.0,526.0,575.0,1426.0,1282.0,172.0,792.0,5646.0
3905,Msc. Kirk Ochoa,male,1978-07-24 22:57:00,0,2,0,6,51887.0,1767.0,318.0,565.0,754.0,1214.0,607.0,1993.0,214.0,302.0,351,0.5836997271046631,1,38.74182072196152,-9.165853648835816,0.021441271736383632,-0.46639024601470147,16.0,2.0,1981.0,11.028465849634443,3242.9375,110.4375,19.875,35.3125,47.125,75.875,37.9375,124.5625,13.375,18.875,123.8125
4071,Phd. Jamie Russell,female,1951-08-07 06:51:00,1,1,0,5,25914.0,1395.0,820.0,255.0,495.0,611.0,157.0,254.0,2209.0,181.0,361,0.238900848527898,1,38.78116951752257,-9.15730186442567,-0.5000000000000004,0.8660254037844384,6.0,2.0,3604.0,10.488381147655819,4319.0,232.5,136.66666666666666,42.5,82.5,101.83333333333333,26.166666666666668,42.333333333333336,368.1666666666667,30.166666666666668,600.6666666666666
4089,Bsc. John Walker,male,1982-06-24 19:52:00,0,3,1,6,39821.0,4656.0,1204.0,587.0,954.0,2402.0,1387.0,1027.0,164.0,407.0,331,0.2539377672256174,1,38.76145745757219,-9.12812478998896,0.5,-0.8660254037844387,10.0,3.0,4820.0,10.958322093858342,3982.1,465.6,120.4,58.7,95.4,240.2,138.7,102.7,16.4,40.7,482.0
4118,Albert Fuller,male,1993-01-15 12:11:00,2,1,2,2,7793.0,88.0,121.0,204.0,680.0,613.0,291.0,601.0,1775.0,301.0,109,0.7527367583530525,1,38.74827827350483,-9.157429463828883,1.249000902703301e-16,-1.0,11.0,3.0,1863.0,9.570180302058072,708.4545454545455,8.0,11.0,18.545454545454547,61.81818181818182,55.72727272727273,26.454545454545453,54.63636363636363,161.36363636363637,27.363636363636363,169.36363636363637
4126,Lorrine Haas,female,1965-07-02 00:37:00,0,0,2,1,11463.0,10697.0,27.0,808.0,805.0,1773.0,369.0,405.0,2898.0,330.0,84,0.2892951970871588,1,38.76555225548463,-9.190901370686792,-0.7071067811865471,-0.7071067811865479,7.0,0.0,13595.0,10.672924252515658,1637.5714285714287,1528.142857142857,3.857142857142857,115.42857142857143,115.0,253.28571428571428,52.714285714285715,57.857142857142854,414.0,47.142857142857146,1942.142857142857
4152,Aaron Burbank,male,1998-03-06 22:21:00,0,0,0,2,4617.000000000004,13366.0,145.0,927.0,833.0,787.0,764.0,142.0,3373.0,368.6,48,0.19145878926081294,1,38.74873279923826,-9.184261192733176,-0.5000000000000004,0.8660254037844384,0.0,0.0,16739.0,10.64691426379882,4617.000000000004,13366.0,145.0,927.0,833.0,787.0,764.0,142.0,3373.0,368.6,16739.0
4163,Bsc. Anne Andres,female,1961-04-18 19:39:00,7,3,1,1,26472.0,5080.0,807.0,1283.0,1549.0,2361.0,1049.0,683.0,286.0,286.0,116,0.1261512095587071,1,38.71037853963509,-9.158413472196887,0.7071067811865476,-0.7071067811865475,11.0,10.0,5366.0,10.71936108595781,2406.5454545454545,461.8181818181818,73.36363636363636,116.63636363636364,140.8181818181818,214.63636363636363,95.36363636363636,62.09090909090909,26.0,26.0,487.8181818181818
4168,Msc. Gail Hernandez,female,1949-10-15 14:39:00,1,2,2,2,29233.0,6274.0,696.0,1606.0,2235.0,1593.0,1327.0,1166.0,417.0,737.0,88,0.1157818432494939,1,38.70783282964793,-9.127868858525623,0.258819045102521,-0.9659258262890682,24.0,3.0,6691.0,10.858537352560367,1218.0416666666667,261.4166666666667,29.0,66.91666666666667,93.125,66.375,55.291666666666664,48.583333333333336,17.375,30.708333333333332,278.7916666666667
4246,Msc. Bruce Akers,male,1977-06-16 20:47:00,2,2,0,1,14283.0,4884.0,1023.0,867.0,1252.0,2358.0,1348.0,457.0,369.99999999999994,206.0,527,0.1430426028669181,1,38.74341949461713,-9.176983786934136,0.258819045102521,-0.9659258262890682,13.0,4.0,5254.0,10.382915384154703,1098.6923076923076,375.6923076923077,78.6923076923077,66.6923076923077,96.3076923076923,181.3846153846154,103.6923076923077,35.15384615384615,28.461538461538456,15.846153846153847,404.15384615384613
4249,Bsc. Maria Ovellette,female,1963-07-28 20:02:00,1,3,0,7,22495.0,2783.0000000000005,818.0,664.0,1505.0,2347.0,786.0,1219.0,413.0,12.0,115,0.2250848319827941,1,38.77224662815996,-9.184145763918496,0.258819045102521,-0.9659258262890682,14.0,4.0,3196.0000000000005,10.497891165957215,1606.7857142857142,198.7857142857143,58.42857142857143,47.42857142857143,107.5,167.64285714285714,56.142857142857146,87.07142857142857,29.5,0.8571428571428571,228.2857142857143
4304,Msc. Jasmine Jaco,female,1941-10-08 15:02:00,0,2,0,3,15302.999999999998,6285.0,475.0,1458.0,2372.0,1284.0,597.0,1532.0,393.0,50.0,372,0.12270089124911304,0,38.73544339477207,-9.149335413124124,0.5,-0.8660254037844387,10.0,2.0,6678.0,10.50309298868771,1530.2999999999997,628.5,47.5,145.8,237.2,128.4,59.7,153.2,39.3,5.0,667.8
4323,Michael Bunch,male,1983-05-17 20:55:00,0,0,2,2,5436.000000000004,17721.0,106.0,772.0,2382.0,746.8,516.0,52.999999999999886,1277.0,428.0,155,0.1912863635388371,1,38.735617966704005,-9.17376761481039,-0.8660254037844384,-0.5000000000000004,14.0,0.0,18998.0,10.788015134378375,388.28571428571456,1265.7857142857142,7.571428571428571,55.142857142857146,170.14285714285714,53.34285714285714,36.857142857142854,3.7857142857142776,91.21428571428571,30.571428571428573,1357.0
4371,Phd. Eva Coombe,female,1962-12-30 23:41:00,1,2,1,6,31106.0,7257.0,732.0,1791.0,1259.0,1928.0,688.0,1491.0,318.6,249.0,302,0.1977235148078466,1,38.72915372394531,-9.127227879987789,0.7071067811865476,-0.7071067811865475,9.0,3.0,7575.6,10.904049577463027,3456.222222222222,806.3333333333334,81.33333333333333,199.0,139.88888888888889,214.22222222222223,76.44444444444444,165.66666666666666,35.400000000000006,27.666666666666668,841.7333333333333
4374,Phd. Rosanna Williams,female,1967-02-27 08:15:00,1,6,0,5,20663.0,5517.0,1025.0,1003.0,1703.0,1528.0,596.0,1025.0,538.0,430.0,524,0.2288826296030744,1,38.72749845880473,-9.176396359767535,0.258819045102521,-0.9659258262890682,15.0,7.0,6055.0,10.59873253117822,1377.5333333333333,367.8,68.33333333333333,66.86666666666666,113.53333333333333,101.86666666666666,39.733333333333334,68.33333333333333,35.86666666666667,28.666666666666668,403.6666666666667
4390,Msc. Alicia Behrens,female,1951-02-08 16:23:00,5,1,1,3,30529.0,7483.0,689.0,654.0,1722.0,1089.0,2691.0,1308.0,472.0,945.0,253,0.1502831436472087,1,38.71098447422504,-9.185926341199508,1.249000902703301e-16,-1.0,19.0,6.0,7955.0,10.92482275012959,1606.7894736842106,393.8421052631579,36.26315789473684,34.421052631578945,90.63157894736842,57.31578947368421,141.6315789473684,68.84210526315789,24.842105263157894,49.73684210526316,418.6842105263158
4430,Phd. Becky Johnson,female,1985-07-27 19:52:00,4,4,1,1,31976.0,6070.0,1007.0,822.0,2448.0,1646.2,955.0,1084.0,485.0,483.0,540,0.1362889621461647,1,38.770930516871736,-9.17680172678435,0.5,-0.8660254037844387,13.0,8.0,6555.0,10.888038620992376,2459.6923076923076,466.9230769230769,77.46153846153847,63.23076923076923,188.30769230769232,126.63076923076923,73.46153846153847,83.38461538461539,37.30769230769231,37.15384615384615,504.2307692307692
4504,Phd. Pauline Mozak,female,1998-06-12 02:06:00,0,0,1,7,6518.0,180.0,477.0,716.0,136.0,630.0,1081.0,738.0,1967.0,28.0,294,1.0,1,38.77850761054399,-9.187909602416733,-0.9659258262890683,-0.25881904510252063,5.0,0.0,2147.0,9.590077331511615,1303.6,36.0,95.4,143.2,27.2,126.0,216.2,147.6,393.4,5.6,429.4
4525,Joyce Blatt,female,1961-11-14 01:12:00,0,0,1,1,7936.0,14120.0,45.0,639.0,964.0,642.0,622.0,105.99999999999989,2648.0,629.0,22,0.3649037865151461,1,38.75632075359432,-9.169789820718147,-0.9659258262890683,-0.25881904510252063,13.0,0.0,16768.0,10.71708088617194,610.4615384615385,1086.1538461538462,3.4615384615384617,49.15384615384615,74.15384615384616,49.38461538461539,47.84615384615385,8.153846153846144,203.69230769230768,48.38461538461539,1289.8461538461538
4580,Bsc. Jeffrey Jodway,male,1956-01-13 21:23:00,1,2,3,3,7811.0,3619.0,66.0,465.0,541.0,1330.0,1140.0,585.0,1972.0,146.0,102,0.1803554578683488,1,38.77257327458626,-9.200412400460266,-0.9999999999999999,-1.6653345369377348e-16,15.0,3.0,5591.0,10.054791326627294,520.7333333333333,241.26666666666668,4.4,31.0,36.06666666666667,88.66666666666667,76.0,39.0,131.46666666666667,9.733333333333333,372.73333333333335
4659,Joyce Gaston,female,1949-06-16 10:55:00,0,1,2,2,11383.0,22222.0,4.0,710.0,1005.0,1076.0,1210.0,272.0,1309.0,93.0,127,0.11397876960469461,1,38.75245188921992,-9.146174051718962,-0.5000000000000004,0.8660254037844384,7.0,1.0,23531.0,11.047965097076188,1626.142857142857,3174.5714285714284,0.5714285714285714,101.42857142857143,143.57142857142858,153.71428571428572,172.85714285714286,38.857142857142854,187.0,13.285714285714286,3361.5714285714284
4690,Msc. David Adamson,male,1946-07-13 00:12:00,0,1,1,3,39460.0,1852.0,150.0,607.0,1042.0,554.0,644.0,1369.0,2329.0,176.0,159,0.554286240766345,1,38.71697307502645,-9.167060421816052,-0.9659258262890683,-0.25881904510252063,14.0,1.0,4181.0,10.865993708207245,2818.5714285714284,132.28571428571428,10.714285714285714,43.357142857142854,74.42857142857143,39.57142857142857,46.0,97.78571428571429,166.35714285714286,12.571428571428571,298.64285714285717
4715,Phd. Ruth Hoffman,female,1990-09-28 02:50:00,1,2,1,3,68593.0,1610.0,114.00000000000006,560.0,773.0,820.0,12.0,444.99999999999994,242.0,372.0,363,0.42572483852424625,1,38.72832215060394,-9.157161305490492,0.8660254037844387,-0.4999999999999998,8.0,3.0,1852.0,11.230482975232924,8574.125,201.25,14.250000000000007,70.0,96.625,102.5,1.5,55.62499999999999,30.25,46.5,231.5
4744,Bsc. Thaddeus Litherland,male,2000-06-07 08:33:00,5,2,1,4,19465.0,4185.0,1328.0,1442.0,1757.0,1606.0,1151.0,857.0,455.0,70.0,530,0.2065905443731669,1,38.70906984772705,-9.194203112046896,0.5,-0.8660254037844387,9.0,7.0,4640.0,10.517510353630083,2162.777777777778,465.0,147.55555555555554,160.22222222222223,195.22222222222223,178.44444444444446,127.88888888888889,95.22222222222223,50.55555555555556,7.777777777777778,515.5555555555555
4954,Phd. Pamela Ferreira,female,1978-12-24 18:16:00,4,0,2,3,16403.0,6744.0,707.0,699.0,2641.0,1599.0,1043.0,602.0,448.99999999999994,192.0,379,0.1047951721925883,1,38.75685068080513,-9.148697663521723,0.258819045102521,-0.9659258262890682,15.0,4.0,7193.0,10.552499965731496,1093.5333333333333,449.6,47.13333333333333,46.6,176.06666666666666,106.6,69.53333333333333,40.13333333333333,29.93333333333333,12.8,479.53333333333336
4989,Msc. Leon Williams,male,1982-12-30 17:15:00,4,3,1,2,14814.000000000002,4784.0,47.0,449.0,858.0,1072.0,799.0,966.0,368.99999999999994,455.0,600,0.3652993549697541,1,38.717166826621096,-9.139641130906073,0.8660254037844387,-0.4999999999999998,14.0,7.0,5153.0,10.301155676342068,1058.1428571428573,341.7142857142857,3.357142857142857,32.07142857142857,61.285714285714285,76.57142857142857,57.07142857142857,69.0,26.357142857142854,32.5,368.07142857142856
5008,Bsc. Morgan Torrie,female,1958-06-16 00:36:00,4,5,1,3,30036.0,4400.0,1571.0,1909.0,1066.0,1256.0,1705.0,921.0,633.0,320.0,135,0.3213265890399421,1,38.78693264326086,-9.117841681177133,0.5,-0.8660254037844387,15.0,9.0,5033.0,10.796530128090472,2002.4,293.3333333333333,104.73333333333333,127.26666666666667,71.06666666666666,83.73333333333333,113.66666666666667,61.4,42.2,21.333333333333332,335.53333333333336
5084,Bsc. Virginia Toman,female,1987-04-23 06:20:00,1,1,1,3,79573.0,1271.0,295.0,558.0,982.0,1142.0,436.0,2412.0,302.0,299.0,346,0.807502950152339,1,38.7160655087215,-9.15790147772486,-0.49999999999999967,-0.8660254037844388,16.0,2.0,1573.0,11.394637301758399,4973.3125,79.4375,18.4375,34.875,61.375,71.375,27.25,150.75,18.875,18.6875,98.3125
5196,Andrew Coleman,male,1998-09-25 23:37:00,1,1,3,4,8034.0,19587.0,155.0,426.0,1174.0,1301.0,799.0,158.9999999999999,1942.0,480.0,1,0.223410840302282,1,38.7439326381016,-9.173373291915045,-0.9999999999999999,-1.6653345369377348e-16,7.0,2.0,21529.0,10.925704639950524,1147.7142857142858,2798.1428571428573,22.142857142857142,60.857142857142854,167.71428571428572,185.85714285714286,114.14285714285714,22.714285714285698,277.42857142857144,68.57142857142857,3075.5714285714284
5279,Bsc. George Demirchyan,male,1979-01-27 18:06:00,1,1,1,4,39413.0,7883.0,208.0,1150.0,514.0,1184.0,954.0,2293.0,2030.0,316.0,153,0.3347116688761463,1,38.73247088758888,-9.145994908661104,-0.25881904510252074,-0.9659258262890683,13.0,2.0,9913.0,11.095271372092032,3031.769230769231,606.3846153846154,16.0,88.46153846153847,39.53846153846154,91.07692307692308,73.38461538461539,176.3846153846154,156.15384615384616,24.307692307692307,762.5384615384615
5337,Msc. Bruce Ruffo,male,1984-08-13 03:55:00,2,0,1,2,68719.0,343.0000000000009,372.0,588.0,589.0,1325.0,1501.0,1051.0,236.0,261.0,236,0.4361900397832121,1,38.778816148258656,-9.166775742092245,0.8660254037844387,-0.4999999999999998,22.0,2.0,579.0000000000009,11.232748492004221,3123.590909090909,15.590909090909133,16.90909090909091,26.727272727272727,26.772727272727273,60.22727272727273,68.22727272727273,47.77272727272727,10.727272727272727,11.863636363636363,26.31818181818186
5366,Msc. Raul Ackley,male,1960-04-19 01:04:00,0,1,0,1,83934.0,9883.0,805.0,196.0,1241.0,947.0,945.0,995.0,651.0,211.0,123,0.8463340301766544,1,38.78422050069338,-9.13659643748166,-0.49999999999999967,-0.8660254037844388,11.0,1.0,10534.0,11.61134897514632,7630.363636363636,898.4545454545455,73.18181818181819,17.818181818181817,112.81818181818181,86.0909090909091,85.9090909090909,90.45454545454545,59.18181818181818,19.181818181818183,957.6363636363636
5398,Msc. Jacqueline Stuckett,female,1947-05-14 21:12:00,2,2,3,3,49762.0,1051.0,204.0,406.0,530.0,1218.0,1711.0,734.0,121.0,745.0,82,0.5808488413767662,1,38.7652437436675,-9.154060222289605,1.249000902703301e-16,-1.0,7.0,4.0,1172.0,10.962232252205217,7108.857142857143,150.14285714285714,29.142857142857142,58.0,75.71428571428571,174.0,244.42857142857142,104.85714285714286,17.285714285714285,106.42857142857143,167.42857142857142
5405,Phd. Mary Rogers,female,1955-06-05 14:14:00,1,1,0,1,50929.0,2898.9999999999995,556.0,290.0,449.0,738.0,79.99999999999989,836.0,513.0,658.0,51,0.7101696474062084,1,38.729762958486994,-9.180596313839086,-0.25881904510252074,-0.9659258262890683,5.0,2.0,3411.9999999999995,11.024529733170398,10185.8,579.8,111.2,58.0,89.8,147.6,15.999999999999977,167.2,102.6,131.6,682.3999999999999
5428,Bsc. Willie Gasper,male,1972-05-12 05:04:00,1,4,1,2,40218.0,5686.0,1009.0,750.0,2570.0,2089.0,895.0,1055.0,220.0,659.0,373,0.3271023937232302,1,38.78261557075442,-9.181202124935442,0.8660254037844387,-0.4999999999999998,21.0,5.0,5906.0,11.019579511084883,1915.142857142857,270.76190476190476,48.04761904761905,35.714285714285715,122.38095238095238,99.47619047619048,42.61904761904762,50.23809523809524,10.476190476190476,31.38095238095238,281.23809523809524
5442,Bsc. Martha Heller,female,1970-09-08 09:12:00,0,0,1,2,22793.0,11814.0,221.0,708.0,184.0,547.0,1543.0,845.0,214.0,224.0,336,0.5915355325468449,0,38.72832958258564,-9.135554951893177,-0.9999999999999999,-1.6653345369377348e-16,10.0,0.0,12028.0,10.841970211916781,2279.3,1181.4,22.1,70.8,18.4,54.7,154.3,84.5,21.4,22.4,1202.8
5455,Msc. Gwendolyn Johnson,female,1972-02-12 01:13:00,1,0,1,4,78101.0,2721.0000000000005,439.0,594.0,684.0,1320.0,898.0,556.0,196.0,564.0,213,0.5587381842546609,1,38.78487945627489,-9.138460319202904,-0.49999999999999967,-0.8660254037844388,10.0,1.0,2917.0000000000005,11.396290520005437,7810.1,272.1,43.9,59.4,68.4,132.0,89.8,55.6,19.6,56.4,291.70000000000005
5465,Bsc. Darrell Harris,male,1976-09-30 23:01:00,0,3,0,6,31619.0,3765.0,465.0,977.0,1588.0,2084.3999999999996,1557.0,1100.0,325.0,130.0,512,0.1933051447295828,1,38.739456962387735,-9.125719833293264,1.249000902703301e-16,-1.0,13.0,3.0,4090.0,10.77271602655055,2432.230769230769,289.61538461538464,35.76923076923077,75.15384615384616,122.15384615384616,160.3384615384615,119.76923076923077,84.61538461538461,25.0,10.0,314.61538461538464
5608,Phd. Latisha Abuaita,female,1963-06-16 02:27:00,1,0,1,3,13943.0,3015.0,397.0,1847.0,1092.0,1048.0,2068.0,898.0,460.0,579.0,417,0.3111500187582253,1,38.77999315926304,-9.127649376018905,-0.8660254037844384,-0.5000000000000004,20.0,1.0,3475.0,10.268928958514973,697.15,150.75,19.85,92.35,54.6,52.4,103.4,44.9,23.0,28.95,173.75
5630,Msc. John Desantiago,male,1989-08-17 23:03:00,3,1,1,3,7907.0,785.0,1699.0,691.0,356.0,155.0,60.0,1448.0,1975.0,510.0,110,0.06215729504916018,1,38.78749973309626,-9.192043957449402,0.8660254037844387,-0.4999999999999998,5.0,4.0,2760.0,9.81722135237872,1581.4,157.0,339.8,138.2,71.2,31.0,12.0,289.6,395.0,102.0,552.0
5646,Msc. Ok Begay,female,1950-03-12 00:38:00,1,1,1,4,73941.0,957.0,340.0,772.0,988.0,750.0,890.0,1466.0,309.0,308.0,441,0.52157745783218,1,38.729025570883,-9.17191139409902,0.9659258262890683,-0.25881904510252063,17.0,2.0,1266.0,11.314328174074019,4349.470588235294,56.294117647058826,20.0,45.411764705882355,58.11764705882353,44.11764705882353,52.35294117647059,86.23529411764706,18.176470588235293,18.11764705882353,74.47058823529412
5679,Msc. Stephanie Magers,female,1986-07-27 16:40:00,2,1,0,6,30778.0,4885.0,1111.0,1462.0,2418.0,1849.0,1043.0,954.0,568.0,623.0,121,0.2284832935045736,1,38.71974031166077,-9.149445154239118,0.5,-0.8660254037844387,14.0,3.0,5453.0,10.842420014891108,2198.4285714285716,348.92857142857144,79.35714285714286,104.42857142857143,172.71428571428572,132.07142857142858,74.5,68.14285714285714,40.57142857142857,44.5,389.5
5757,Phd. Howard Emerson,male,1988-02-29 10:17:00,1,2,1,1,15666.0,4683.0,262.0,700.0,1348.0,1851.0,1185.0,281.0,2212.0,549.0,304,0.041250998977582276,1,38.746638008063584,-9.167621887971064,0.258819045102521,-0.9659258262890682,16.0,3.0,6895.0,10.481027453764323,979.125,292.6875,16.375,43.75,84.25,115.6875,74.0625,17.5625,138.25,34.3125,430.9375
5875,Zoe Starling,female,1991-05-28 12:47:00,0,0,1,2,9195.0,14183.0,367.0,219.99999999999994,922.0,224.0,1722.0,52.0,1800.0,555.0,140,0.1946571815928264,1,38.768153051572426,-9.160690161267956,-0.7071067811865471,-0.7071067811865479,8.0,0.0,15983.0,10.719383198355127,1149.375,1772.875,45.875,27.499999999999993,115.25,28.0,215.25,6.5,225.0,69.375,1997.875
5883,Nora Ferguson,female,1984-05-16 16:41:00,1,0,1,2,7176.000000000004,10856.0,147.0,802.0,722.0,760.0,402.0,425.0,2390.0,678.0,1,0.037506870419178495,1,38.76617787541584,-9.174978867834584,-0.2588190451025215,0.9659258262890682,11.0,1.0,13246.0,10.534892299260504,652.3636363636367,986.9090909090909,13.363636363636363,72.9090909090909,65.63636363636364,69.0909090909091,36.54545454545455,38.63636363636363,217.27272727272728,61.63636363636363,1204.1818181818182
5902,Msc. James Heichel,male,1993-12-22 07:23:00,0,0,1,5,30946.0,1277.0,234.0,593.0,584.0,992.0,1432.0,1819.0,1835.0,243.0,82,0.565525475730252,1,38.716885747709206,-9.185583374788912,-0.9659258262890683,0.25881904510252024,12.0,0.0,3112.0,10.670535540935608,2578.8333333333335,106.41666666666667,19.5,49.416666666666664,48.666666666666664,82.66666666666667,119.33333333333333,151.58333333333334,152.91666666666666,20.25,259.3333333333333
5911,Catherine Byrd,female,1954-06-29 01:33:00,0,1,1,1,8971.0,14977.0,74.0,1519.0,946.0,1362.0,1224.0,48.0,1516.0,297.0,112,0.2191028928907564,1,38.71992465889016,-9.202495269612104,-0.5000000000000004,0.8660254037844384,8.0,1.0,16493.0,10.766968050577962,1121.375,1872.125,9.25,189.875,118.25,170.25,153.0,6.0,189.5,37.125,2061.625
5915,Phd. Marshall Hall,male,1963-12-13 10:53:00,3,5,0,5,33702.0,4285.0,481.0,1205.0,2546.0,1141.0,477.0,637.0,228.0,103.0,332,0.1692583704906902,1,38.72597242785854,-9.143705424531818,0.8660254037844387,-0.4999999999999998,6.0,8.0,4513.0,10.806064681322521,5617.0,714.1666666666666,80.16666666666667,200.83333333333334,424.3333333333333,190.16666666666666,79.5,106.16666666666667,38.0,17.166666666666668,752.1666666666666
5963,Bsc. Joseph Kuykendall,male,1963-04-04 07:37:00,1,1,2,5,90759.0,4886.0,237.0,794.0,1115.0,846.0,1449.0,1326.0,404.00000000000006,297.0,291,0.511424554937788,1,38.71141446540749,-9.161105455976491,-0.8660254037844386,0.5000000000000002,19.0,2.0,5290.0,11.584352704311222,4776.789473684211,257.1578947368421,12.473684210526315,41.78947368421053,58.68421052631579,44.526315789473685,76.26315789473684,69.78947368421052,21.263157894736846,15.631578947368421,278.42105263157896
5995,Tony Diaz,male,,0,2,2,2,4617.000000000004,9565.0,27.0,419.0,588.0,702.0,1147.0,9.0,1818.0,87.0,91,0.3483588848508193,1,38.77162478369559,-9.168853799082362,-0.8660254037844384,-0.5000000000000004,10.0,2.0,11383.0,10.32098004085701,461.7000000000004,956.5,2.7,41.9,58.8,70.2,114.7,0.9,181.8,8.7,1138.3
6018,Msc. Judith Gilbert,female,1991-07-04 23:17:00,2,1,0,5,7582.0,3420.0000000000005,350.0,91.0,477.0,190.0,478.0,380.0,1842.0,381.0,419,0.7446602564374034,1,38.77403481702824,-9.232069399836345,0.5,-0.8660254037844387,17.0,3.0,5262.0,9.925933741365958,446.0,201.17647058823533,20.58823529411765,5.352941176470588,28.058823529411764,11.176470588235293,28.11764705882353,22.352941176470587,108.3529411764706,22.41176470588235,309.52941176470586
6140,Bsc. Kimberly Hopper,female,1970-08-14 21:34:00,1,1,4,5,10806.0,482.0,1230.0,1500.0,34.0,144.0,102.00000000000011,1562.0,935.0,431.0,148,0.1181588346008281,1,38.75835812144357,-9.077928695863555,0.8660254037844387,-0.4999999999999998,8.0,2.0,1417.0,9.833279657492632,1350.75,60.25,153.75,187.5,4.25,18.0,12.750000000000014,195.25,116.875,53.875,177.125
6163,Msc. Kevin Miles,male,1956-07-25 02:13:00,1,0,1,5,24740.0,4432.0,338.0,506.0,1592.0,1735.0,1180.0,926.0,1131.2,415.0,510,0.9866821978921556,1,38.7207872791506,-9.13844552694125,-0.2588190451025215,0.9659258262890682,12.0,1.0,5563.2,10.65865602617179,2061.6666666666665,369.3333333333333,28.166666666666668,42.166666666666664,132.66666666666666,144.58333333333334,98.33333333333333,77.16666666666667,94.26666666666667,34.583333333333336,463.59999999999997
6221,Frank Navarro,male,1994-12-23 13:34:00,3,1,2,2,12701.0,215.0,297.0,241.0,820.0,299.0,20.0,562.0,96.0,864.0,35,1.0,1,38.7476630028822,-9.155803076935618,0.258819045102521,-0.9659258262890682,5.0,4.0,311.0,9.7066816015412,2540.2,43.0,59.4,48.2,164.0,59.8,4.0,112.4,19.2,172.8,62.2
6251,Msc. Elizabeth Sparks,female,1956-05-16 20:09:00,0,0,3,1,18460.0,2426.0000000000005,135.0,816.0,648.0,607.0,1206.0,1177.0,786.0,465.0,600,0.7014163944089779,1,38.76122817616611,-9.188283724564767,-0.9659258262890683,-0.25881904510252063,5.0,0.0,3212.0000000000005,10.306917257282223,3692.0,485.2000000000001,27.0,163.2,129.6,121.4,241.2,235.4,157.2,93.0,642.4000000000001
6254,Eliza Milligan,female,2000-03-19 10:44:00,0,0,0,1,8110.0,5310.0,165.0,284.0,1085.0,1397.0,452.0,309.0,2692.0,330.0,185,0.3055521514870623,1,38.75084716537389,-9.179564996445476,-0.8660254037844386,0.5000000000000002,10.0,0.0,8002.0,10.244840715177048,811.0,531.0,16.5,28.4,108.5,139.7,45.2,30.9,269.2,33.0,800.2
6257,Bsc. Luis Mcdonald,male,1980-01-15 23:58:00,5,1,1,5,26870.0,3488.9999999999995,1100.0,533.0,1588.0,2434.0,573.0,1389.0,443.99999999999994,669.0,162,0.2379115418584385,1,38.74357180140576,-9.123959999339212,0.7071067811865476,-0.7071067811865475,10.0,6.0,3932.9999999999995,10.669490135397321,2687.0,348.9,110.0,53.3,158.8,243.4,57.3,138.9,44.39999999999999,66.9,393.29999999999995
6292,Bsc. Vicky Clopton,female,1944-05-10 02:46:00,1,1,0,3,13418.0,4243.0,454.0,754.0,707.0,1078.0,1142.0,2954.0,230.0,172.0,222,0.393465325364804,1,38.7624119727358,-9.1892573854059,-0.49999999999999967,-0.8660254037844388,14.0,2.0,4473.0,10.296407633141998,958.4285714285714,303.07142857142856,32.42857142857143,53.857142857142854,50.5,77.0,81.57142857142857,211.0,16.428571428571427,12.285714285714286,319.5
6333,Msc. Alice Wilson,female,2001-05-24 22:43:00,4,4,2,1,16805.0,5524.0,605.0,1482.0,1871.0,1379.0,1776.0,617.0,235.0,496.6,259,0.04331679737670652,1,38.78701628696289,-9.183818836631634,0.7071067811865476,-0.7071067811865475,15.0,8.0,5759.0,10.506452880911858,1120.3333333333333,368.26666666666665,40.333333333333336,98.8,124.73333333333333,91.93333333333334,118.4,41.13333333333333,15.666666666666666,33.10666666666667,383.93333333333334
6370,Bsc. Nora Scott,female,1956-11-27 21:01:00,2,0,0,1,65020.0,17109.0,559.0,1405.0,368.0,1498.2,926.0,38.0,524.0,391.0,363,0.3101077824001378,1,38.78265912858348,-9.144959061158517,-0.7071067811865471,-0.7071067811865479,10.0,2.0,17633.0,11.566202690065156,6502.0,1710.9,55.9,140.5,36.8,149.82,92.6,3.8,52.4,39.1,1763.3
6396,Msc. Helen Jones,female,1975-08-25 19:44:00,2,1,1,5,82497.0,1287.0,213.0,654.0,457.0,1268.0,1660.0,1488.0,275.0,444.0,284,0.4826092706528726,1,38.722468326135726,-9.153862899143162,1.249000902703301e-16,-1.0,17.0,3.0,1562.0,11.427432933949868,4852.764705882353,75.70588235294117,12.529411764705882,38.470588235294116,26.88235294117647,74.58823529411765,97.6470588235294,87.52941176470588,16.176470588235293,26.11764705882353,91.88235294117646
6434,Phd. Mary Cea,female,1999-12-14 00:50:00,1,0,0,2,100166.0,3145.0000000000005,952.0,12.0,291.0000000000001,934.0,1190.0,85.0,637.0,261.0,527,0.2990422666771443,1,38.73275312112673,-9.160589876587348,-0.8660254037844384,-0.5000000000000004,9.200000000000045,1.0,3782.0000000000005,11.621385173165727,10887.60869565212,341.84782608695485,103.4782608695647,1.30434782608695,31.630434782608553,101.52173913043428,129.34782608695588,9.239130434782563,69.23913043478227,28.369565217391163,411.08695652173714
6435,Msc. Nathan Ortega,male,1987-10-26 02:04:00,0,0,1,3,7958.0,503.0,376.0,153.0,105.0,648.0,148.0,179.0,185.0,1048.0,29,0.860133130516163,1,38.740639540795975,-9.166568802646909,-0.8660254037844384,-0.5000000000000004,16.0,0.0,688.0,9.391995039782433,497.375,31.4375,23.5,9.5625,6.5625,40.5,9.25,11.1875,11.5625,65.5,43.0
6448,Phd. Jose Hanley,male,1983-02-19 04:10:00,2,1,2,4,27293.0,3975.0,862.0,750.0,1611.0,834.0,2857.0,977.0,511.0,147.0,244,0.07637505261020078,1,38.73191083833792,-9.123619243546724,-0.49999999999999967,-0.8660254037844388,18.0,3.0,4486.0,10.698830245410743,1516.2777777777778,220.83333333333334,47.888888888888886,41.666666666666664,89.5,46.333333333333336,158.72222222222223,54.27777777777778,28.38888888888889,8.166666666666666,249.22222222222223
6454,Bsc. Misty Lowe,female,1954-07-16 13:04:00,1,0,1,1,7165.999999999996,32069.0,108.0,178.0,751.0,864.0,1948.0,1196.0,390.0,63.0,233,0.2576363200371768,1,38.76776087307472,-9.132430737860734,1.249000902703301e-16,-1.0,9.0,1.0,32459.0,11.254064058326641,796.2222222222218,3563.222222222222,12.0,19.77777777777778,83.44444444444444,96.0,216.44444444444446,132.88888888888889,43.333333333333336,7.0,3606.5555555555557
6469,Bsc. Luis Verrelli,male,1983-08-30 19:04:00,6,2,0,2,17886.0,4953.0,723.0,905.0,2208.0,1418.0,2642.0,1067.0,349.0,643.0,544,0.2881475130843615,1,38.740795856712936,-9.173427234937938,-0.25881904510252074,-0.9659258262890683,9.0,8.0,5302.0,10.547890817857143,1987.3333333333333,550.3333333333334,80.33333333333333,100.55555555555556,245.33333333333334,157.55555555555554,293.55555555555554,118.55555555555556,38.77777777777778,71.44444444444444,589.1111111111111
6538,Msc. Carlos Everett,male,1947-04-07 00:31:00,5,4,0,6,26053.0,5537.0,1104.0,1359.0,1620.0,2375.0,1224.0,676.0,339.0,173.99999999999997,405,0.3405039681305422,1,38.72053809869361,-9.19133087148096,0.5,-0.8660254037844387,8.0,9.0,5876.0,10.74371763779732,3256.625,692.125,138.0,169.875,202.5,296.875,153.0,84.5,42.375,21.749999999999996,734.5
6553,Bsc. Sammy Harper,male,1967-09-18 06:06:00,1,0,0,5,46506.0,1155.0,312.0,842.0,670.0,1968.0,2067.0,317.0,433.0,141.0,428,0.5072688696712045,1,38.73597002023863,-9.12725708924238,0.8660254037844387,-0.4999999999999998,13.0,1.0,1588.0,10.933106969717286,3577.3846153846152,88.84615384615384,24.0,64.76923076923077,51.53846153846154,151.3846153846154,159.0,24.384615384615383,33.30769230769231,10.846153846153847,122.15384615384616
6577,Max Sappington,male,1987-10-06 13:23:00,0,1,2,1,453.0,21470.0,166.39999999999998,670.0,1642.0,1417.0,841.0,742.0,1487.0,416.0,160,0.162894138039619,1,38.76592780221733,-9.173402851050994,-0.2588190451025215,0.9659258262890682,9.0,1.0,22957.0,10.864032462245147,50.333333333333336,2385.5555555555557,18.488888888888887,74.44444444444444,182.44444444444446,157.44444444444446,93.44444444444444,82.44444444444444,165.22222222222223,46.22222222222222,2550.777777777778
6701,Bsc. Irvin Clemons,male,1955-10-14 00:48:00,2,2,3,2,65942.0,2256.0,931.0,532.0,654.0,1065.0,986.0,1099.0,171.0,606.0,129,0.5197770219550955,1,38.74599200322277,-9.162384777939105,0.5,-0.8660254037844387,11.0,4.0,2427.0,11.24726577655294,5994.727272727273,205.0909090909091,84.63636363636364,48.36363636363637,59.45454545454545,96.81818181818181,89.63636363636364,99.9090909090909,15.545454545454545,55.09090909090909,220.63636363636363
6739,Bsc. Jane Northern,female,1991-05-04 00:32:00,2,3,1,3,13551.0,4124.0,298.0,762.0,2377.0,1599.0,1820.0,1033.0,1876.0,343.0,413,0.0896921693166654,1,38.72269744827893,-9.118454149710992,0.8660254037844387,-0.4999999999999998,12.0,5.0,6000.0,10.42774259661378,1129.25,343.6666666666667,24.833333333333332,63.5,198.08333333333334,133.25,151.66666666666666,86.08333333333333,156.33333333333334,28.583333333333332,500.0
6777,Phd. Mark Martinez,male,1941-10-29 15:26:00,1,1,2,5,41604.0,2596.0,364.0,1039.0,947.0,890.0,1405.0,2364.0,2164.0,455.0,345,0.2811512712181245,1,38.76597329755554,-9.177379100909434,-0.9659258262890683,0.25881904510252024,10.0,2.0,4760.0,10.978302244634175,4160.4,259.6,36.4,103.9,94.7,89.0,140.5,236.4,216.4,45.5,476.0
6787,Msc. Kellie Mcclure,female,1981-10-28 17:38:00,6,5,2,6,10152.0,5247.0,368.0,685.0,1805.0,499.0000000000001,2366.0,1409.0,487.0,550.0,231,0.2338883947922539,1,38.76102880765004,-9.160965349008402,-0.25881904510252074,-0.9659258262890683,7.0,11.0,5734.0,10.285445178842252,1450.2857142857142,749.5714285714286,52.57142857142857,97.85714285714286,257.85714285714283,71.2857142857143,338.0,201.28571428571428,69.57142857142857,78.57142857142857,819.1428571428571
6802,Msc. William Sanchez,male,1959-08-03 21:03:00,2,1,1,3,76364.0,130.0,404.0,487.0,1083.0,1082.0,889.0,858.0,234.0,308.0,152,0.1644643139458091,1,38.71686727577382,-9.164518800370432,-0.7071067811865477,0.7071067811865472,18.0,3.0,364.0,11.316959241660811,4242.444444444444,7.222222222222222,22.444444444444443,27.055555555555557,60.166666666666664,60.111111111111114,49.388888888888886,47.666666666666664,13.0,17.11111111111111,20.22222222222222
6858,Bsc. Mark Phillips,male,1953-04-15 23:20:00,4,3,0,3,27908.0,3935.0,918.0,802.0,2039.0,1223.0,1293.0,975.0,2000.0,640.0,299,0.2716695276754327,1,38.74410970846579,-9.172879641689274,-0.7071067811865471,-0.7071067811865479,18.0,7.0,5935.0,10.772036570424822,1550.4444444444443,218.61111111111111,51.0,44.55555555555556,113.27777777777777,67.94444444444444,71.83333333333333,54.166666666666664,111.11111111111111,35.55555555555556,329.72222222222223
6871,Phd. Stan Nagata,male,1957-01-18 13:28:00,1,1,0,3,61537.0,2032.0,296.0,964.0,725.0,1299.0,1420.0,2713.0,1367.0,262.0,434,0.3480358502703455,1,38.78316364255181,-9.168393431806646,0.8660254037844387,-0.4999999999999998,10.0,2.0,3399.0,11.238685968214936,6153.7,203.2,29.6,96.4,72.5,129.9,142.0,271.3,136.7,26.2,339.9
6942,Msc. Sandra Walls,female,1977-12-29 00:18:00,0,2,1,5,20773.0,3570.0,419.0,741.0,665.0,1166.0,352.0,2799.0,262.0,336.0,95,0.4361173393376371,1,38.72127519029895,-9.143927693148065,-0.9659258262890683,-0.25881904510252063,16.0,2.0,3832.0,10.46070045585524,1298.3125,223.125,26.1875,46.3125,41.5625,72.875,22.0,174.9375,16.375,21.0,239.5
6945,Phd. Nina Torres,female,1984-01-03 09:28:00,2,2,0,3,2083.0,861.0,1398.0,569.0,63.0,87.0,200.0,1699.0,1661.0,526.0,187,0.08016780485788921,1,38.77457585873059,-9.069537245820095,0.9659258262890683,-0.25881904510252063,11.0,4.0,2522.0,9.364776725280601,189.36363636363637,78.27272727272727,127.0909090909091,51.72727272727273,5.7272727272727275,7.909090909090909,18.181818181818183,154.45454545454547,151.0,47.81818181818182,229.27272727272728
6962,Phd. Laura Hammond,female,1962-11-06 02:57:00,1,2,3,6,35131.0,3357.0,870.0,737.0,1586.0,2423.0,157.0,1407.0,421.0,84.0,267,0.06879360537955931,1,38.768372540566446,-9.147232151087966,0.258819045102521,-0.9659258262890682,11.0,3.0,3778.0,10.81881782331516,3193.7272727272725,305.1818181818182,79.0909090909091,67.0,144.1818181818182,220.27272727272728,14.272727272727273,127.9090909090909,38.27272727272727,7.636363636363637,343.45454545454544
6973,Phd. Susan Salazar,female,1989-01-30 11:14:00,0,4,0,4,19929.0,5715.0,442.0,870.0,2881.0,1391.0,1465.0,1176.0,391.0,394.0,241,0.2656216884871673,1,38.7481639753894,-9.131305034449907,0.8660254037844387,-0.4999999999999998,5.0,4.0,6106.0,10.615481020892434,3985.8,1143.0,88.4,174.0,576.2,278.2,293.0,235.2,78.2,78.8,1221.2
6996,Msc. Timothy Martin,male,1987-07-13 18:49:00,1,5,0,6,17098.0,3703.0,1986.0,969.0,303.0,2398.0,1066.0,1040.0,275.0,733.0,304,0.1579628809352317,1,38.74681139377049,-9.19598400908614,0.7071067811865476,-0.7071067811865475,15.0,6.0,3978.0,10.420792142399828,1139.8666666666666,246.86666666666667,132.4,64.6,20.2,159.86666666666667,71.06666666666666,69.33333333333333,18.333333333333332,48.86666666666667,265.2
7066,Phd. Dorothy Kosloski,female,1995-12-26 14:08:00,0,1,0,2,11329.0,25916.0,816.0,347.0,817.0,860.0,111.99999999999989,825.0,816.0,157.0,306,1.0,1,38.76388306724661,-9.172899435131388,-0.7071067811865477,0.7071067811865472,5.0,1.0,26732.0,11.137911964317892,2265.8,5183.2,163.2,69.4,163.4,172.0,22.399999999999977,165.0,163.2,31.4,5346.4
7132,Msc. Ethel Golden,female,1978-05-15 16:15:00,3,1,1,3,49401.0,4480.8,164.0,368.0,885.0,1459.0,901.0,1369.0,248.0,458.0,345,1.0,1,38.76649212523086,-9.194711919062009,0.258819045102521,-0.9659258262890682,14.0,4.0,4728.8,11.073856002398227,3528.6428571428573,320.0571428571429,11.714285714285714,26.285714285714285,63.214285714285715,104.21428571428571,64.35714285714286,97.78571428571429,17.714285714285715,32.714285714285715,337.7714285714286
7193,Bsc. Evelin Usher,female,1990-01-08 05:43:00,1,2,0,5,14339.0,5456.0,2079.0,550.0,1844.0,1961.0,2976.0,1207.0,422.0,721.0,366,0.270701068418846,1,38.74362041440481,-9.138497735695625,0.8660254037844387,-0.4999999999999998,8.0,3.0,5878.0,10.530334661338841,1792.375,682.0,259.875,68.75,230.5,245.125,372.0,150.875,52.75,90.125,734.75
7196,Phd. Marcos Adams,male,1947-07-08 01:21:00,3,0,0,1,12210.0,1327.0,2230.0,700.0,170.0000000000001,303.0,137.0,1791.0,1341.0,194.0,130,0.08143868643772312,1,38.7470957937423,-9.154517176991634,0.5,-0.8660254037844387,8.0,3.0,2668.0,10.046375040084676,1526.25,165.875,278.75,87.5,21.250000000000014,37.875,17.125,223.875,167.625,24.25,333.5
7208,Msc. Ellen Anderson,female,2001-07-10 17:28:00,0,0,0,1,55853.0,8041.0,513.0,631.0,1214.0,407.0,1520.0,993.0,640.0,280.0,241,1.0,1,38.74697631432648,-9.14041798391418,-0.8660254037844386,0.5000000000000002,8.599999999999909,0.0,8681.0,11.274338272162165,6494.534883720999,935.0000000000099,59.65116279069831,73.3720930232566,141.16279069767592,47.32558139534934,176.7441860465135,115.46511627907098,74.41860465116358,32.55813953488406,1009.4186046511735
7247,Msc. Lance Hurst,male,1987-09-22 13:39:00,0,0,0,2,50411.0,6025.0,184.0,654.0,639.0,1207.0,489.0,25.0,339.0,286.0,37,0.8461774992287938,1,38.76069281182525,-9.14174234039655,0.258819045102521,-0.9659258262890682,8.0,0.0,6364.0,11.10682015197464,6301.375,753.125,23.0,81.75,79.875,150.875,61.125,3.125,42.375,35.75,795.5
7263,Pamela Young,female,1988-10-25 06:26:00,3,0,2,1,10618.0,12655.0,274.0,516.0,1330.0,1308.0,1478.0,23.0,1357.0,442.0,124,0.034523624398988484,1,38.77011936536559,-9.193421185024512,-0.9659258262890683,0.25881904510252024,6.0,3.0,14012.0,10.692263044109481,1769.6666666666667,2109.1666666666665,45.666666666666664,86.0,221.66666666666666,218.0,246.33333333333334,3.8333333333333335,226.16666666666666,73.66666666666667,2335.3333333333335
7369,Msc. Lucia Hall,female,1959-06-14 21:51:00,5,0,0,5,14425.0,6956.0,1336.0,856.0,2374.0,1792.0,922.0,603.0,354.0,320.0,459,0.1988157397578803,1,38.73453896462653,-9.127074204010452,0.258819045102521,-0.9659258262890682,14.0,5.0,7310.0,10.525380377809771,1030.357142857143,496.85714285714283,95.42857142857143,61.142857142857146,169.57142857142858,128.0,65.85714285714286,43.07142857142857,25.285714285714285,22.857142857142858,522.1428571428571
7482,Msc. Phyllis Macias,female,1965-08-18 04:41:00,6,1,0,6,18639.0,5338.0,655.0,1039.0,2442.0,1916.0,654.0,1307.0,338.0,342.0,580,0.1842948081939334,1,38.74693653138987,-9.130907771162873,0.7071067811865476,-0.7071067811865475,16.0,7.0,5676.0,10.554431576877635,1164.9375,333.625,40.9375,64.9375,152.625,119.75,40.875,81.6875,21.125,21.375,354.75
7494,Msc. Debbie Raber,female,1959-12-12 00:46:00,0,0,1,2,38191.0,13707.0,12.0,241.0,550.0,282.0,513.0,318.0,356.0,353.0,451,0.6913150576543707,1,38.729985280798296,-9.159294277699203,0.8660254037844387,-0.4999999999999998,10.0,0.0,14063.0,11.135858291382576,3819.1,1370.7,1.2,24.1,55.0,28.2,51.3,31.8,35.6,35.3,1406.3
7509,Martha Anderson,female,1987-05-31 09:25:00,2,0,0,1,6417.0,15851.0,198.0,545.0,1223.0,906.0,2361.0,155.0,1711.0,515.0,15,0.2318759875782787,1,38.747460384751164,-9.180934362723518,-0.8660254037844386,0.5000000000000002,11.0,2.0,17562.0,10.767326424407859,583.3636363636364,1441.0,18.0,49.54545454545455,111.18181818181819,82.36363636363636,214.63636363636363,14.090909090909092,155.54545454545453,46.81818181818182,1596.5454545454545
7586,Tom Theil,male,1969-03-13 13:32:00,0,1,1,1,6297.0,11673.0,250.0,628.0,1040.0,194.0,337.0,236.0,1551.0,999.0,122,0.256247908785799,1,38.73790308850455,-9.175701067831625,-0.7071067811865477,0.7071067811865472,12.0,1.0,13224.0,10.503147890002609,524.75,972.75,20.833333333333332,52.333333333333336,86.66666666666667,16.166666666666668,28.083333333333332,19.666666666666668,129.25,83.25,1102.0
7730,Bsc. Russell Marcello,male,1968-09-29 09:38:00,3,3,0,5,36510.0,4246.0,685.0,1580.0,1545.0,2030.0,1929.0,1896.0,474.0,515.0,426,0.2454111176360028,1,38.71376062764305,-9.122248779220271,0.258819045102521,-0.9659258262890682,12.0,6.0,4720.0,10.93544352356233,3042.5,353.8333333333333,57.083333333333336,131.66666666666666,128.75,169.16666666666666,160.75,158.0,39.5,42.916666666666664,393.3333333333333
7820,Jesus Rosario,male,1951-10-12 21:09:00,1,0,1,1,6295.0,7971.0,52.0,1508.0,1083.0,1194.0,249.9999999999999,100.0,1615.0,285.0,191,0.4704324818523259,1,38.77709323972813,-9.2011056111348,-0.9659258262890683,0.25881904510252024,6.0,1.0,9586.0,10.30695065797362,1049.1666666666667,1328.5,8.666666666666666,251.33333333333334,180.5,199.0,41.66666666666665,16.666666666666668,269.1666666666667,47.5,1597.6666666666667
7908,Phd. William Pertsovsky,male,1953-10-11 21:54:00,0,0,0,2,15865.999999999998,12066.0,1179.0,64.0,307.0,808.0,15.0,1338.0,322.0,61.0,342,0.5248451925322649,1,38.717365357315664,-9.184138619249593,-0.7071067811865471,-0.7071067811865479,6.0,0.0,12388.0,10.701332529203802,2644.333333333333,2011.0,196.5,10.666666666666666,51.166666666666664,134.66666666666666,2.5,223.0,53.666666666666664,10.166666666666666,2064.6666666666665
7944,Bsc. Lindsay French,female,1957-12-13 11:34:00,4,4,1,2,19643.0,4328.0,576.0,597.0,1781.0,1586.0,780.0,911.0,1652.0,32.0,518,0.4675844578927951,1,38.752539885858525,-9.14065111788881,0.8660254037844387,-0.4999999999999998,9.0,8.0,5980.0,10.541835299379235,2182.5555555555557,480.8888888888889,64.0,66.33333333333333,197.88888888888889,176.22222222222223,86.66666666666667,101.22222222222223,183.55555555555554,3.5555555555555554,664.4444444444445
7963,Matthew Shindorf,male,1994-03-02 06:55:00,1,0,0,1,5179.0,11095.0,174.0,649.0,1237.0,1209.0,1345.0,87.0,2018.0,626.0,186,0.312357985624728,1,38.73307298444511,-9.196394255796552,-0.8660254037844386,0.5000000000000002,7.0,1.0,13113.0,10.511430812581505,739.8571428571429,1585.0,24.857142857142858,92.71428571428571,176.71428571428572,172.71428571428572,192.14285714285714,12.428571428571429,288.2857142857143,89.42857142857143,1873.2857142857142
7992,Phd. Juan Scott,male,1951-01-26 21:06:00,6,2,1,1,28675.0,5294.0,812.0,1269.0,1000.0,2502.0,384.0,663.0,166.0,355.0,105,0.20770991576021713,1,38.74812492294695,-9.144900839531756,0.7071067811865476,-0.7071067811865475,22.0,8.0,5460.0,10.74894801164928,1303.409090909091,240.63636363636363,36.90909090909091,57.68181818181818,45.45454545454545,113.72727272727273,17.454545454545453,30.136363636363637,7.545454545454546,16.136363636363637,248.1818181818182
8005,Phd. Charles Brundidge,male,1942-01-16 06:13:00,2,5,2,1,28133.0,4031.0,509.0,1133.0,2576.0,843.0,1191.0,1699.0,569.0,529.0,409,0.2192781919802013,1,38.74745528575506,-9.118399651615622,0.258819045102521,-0.9659258262890682,12.0,7.0,4600.0,10.73234500024852,2344.4166666666665,335.9166666666667,42.416666666666664,94.41666666666667,214.66666666666666,70.25,99.25,141.58333333333334,47.416666666666664,44.083333333333336,383.3333333333333
8021,Kenton Kowalik,male,1943-12-30 14:03:00,0,1,1,2,5056.000000000004,9546.0,56.0,561.0,1069.0,689.0,1548.0,189.0,2771.9999999999995,263.0,112,0.297216079173331,1,38.74416392417315,-9.157753345850766,-0.2588190451025215,0.9659258262890682,8.0,1.0,12318.0,10.436113806260972,632.0000000000005,1193.25,7.0,70.125,133.625,86.125,193.5,23.625,346.49999999999994,32.875,1539.75
8061,Paul Gagne,male,1954-07-04 04:32:00,0,0,0,1,7301.0,3618.0,17.0,851.0,866.0,915.0,433.0,128.0,3688.0,298.0,99,0.3814359030276285,1,38.76745267969961,-9.186920560018716,-0.8660254037844386,0.5000000000000002,11.0,0.0,7306.0,10.143370219854614,663.7272727272727,328.90909090909093,1.5454545454545454,77.36363636363636,78.72727272727273,83.18181818181819,39.36363636363637,11.636363636363637,335.27272727272725,27.09090909090909,664.1818181818181
8087,Bsc. Caroline Mcguire,female,1944-03-15 21:37:00,1,1,2,4,83318.0,2675.9999999999995,334.0,628.0,698.0,1097.0,1477.0,1301.0,475.0,325.0,424,0.3759492336529753,1,38.74992444542435,-9.119227373895685,-0.9659258262890683,0.25881904510252024,11.0,2.0,3150.9999999999995,11.466682553795492,7574.363636363636,243.27272727272722,30.363636363636363,57.09090909090909,63.45454545454545,99.72727272727273,134.27272727272728,118.27272727272727,43.18181818181818,29.545454545454547,286.45454545454544
8127,Phd. Eugene Douglas,male,1977-04-23 20:33:00,0,0,2,4,19624.0,2507.0,81.0,671.0,515.0,920.0,304.0,2682.0,316.0,257.0,423,0.2507344146658234,1,38.75860169126653,-9.163243325415566,0.8660254037844387,-0.4999999999999998,15.0,0.0,2823.0,10.332050506334692,1308.2666666666667,167.13333333333333,5.4,44.733333333333334,34.333333333333336,61.333333333333336,20.266666666666666,178.8,21.066666666666666,17.133333333333333,188.2
8150,Hermila Burgess,female,1986-11-25 17:50:00,0,0,1,2,18248.0,23206.0,67.0,684.0,1223.0,1383.0,677.0,780.0,850.0,100.0,56,0.503080368789208,1,38.720825548523855,-9.20263367061372,-0.8660254037844384,-0.5000000000000004,13.0,0.0,24056.0,11.174300913780872,1403.6923076923076,1785.076923076923,5.153846153846154,52.61538461538461,94.07692307692308,106.38461538461539,52.07692307692308,60.0,65.38461538461539,7.6923076923076925,1850.4615384615386
8165,Bsc. Stephen Bennet,male,1942-09-07 03:07:00,1,3,1,4,54490.0,2796.0,908.0,1560.0,2119.0,1138.0,969.0,1113.0,391.0,522.0,50,0.1393442574170313,1,38.75804713966553,-9.14358406787109,1.249000902703301e-16,-1.0,12.0,4.0,3187.0,11.144669432644335,4540.833333333333,233.0,75.66666666666667,130.0,176.58333333333334,94.83333333333333,80.75,92.75,32.583333333333336,43.5,265.5833333333333
8168,Lois Rodriguez,female,1959-04-11 06:48:00,0,0,2,3,11291.0,10271.0,91.0,419.0,2002.0,1187.0,1523.0,430.0,1231.0,4.0,218,0.2005594952696479,1,38.72929537920909,-9.159298588992424,0.8660254037844387,-0.4999999999999998,10.0,0.0,11502.0,10.595434012519554,1129.1,1027.1,9.1,41.9,200.2,118.7,152.3,43.0,123.1,0.4,1150.2
8187,Bsc. Susan Do,female,1974-02-26 19:18:00,1,0,1,1,45746.0,113.99999999999909,718.0,396.0,207.0,542.0,2069.0,796.0,640.0,265.0,45,0.7238214346389057,1,38.70875386080604,-9.135653512249988,-0.7071067811865471,-0.7071067811865479,5.0,1.0,753.9999999999991,10.863756891582494,9149.2,22.79999999999982,143.6,79.2,41.4,108.4,413.8,159.2,128.0,53.0,150.7999999999998
8195,Msc. Lisa Cribbin,female,1952-05-24 19:16:00,2,1,2,4,84323.0,159.0000000000009,390.0,546.0,508.0,1026.0,422.0,1061.0,425.0,305.0,243,0.5534447672305847,1,38.73328940337052,-9.135038037642474,-0.2588190451025215,0.9659258262890682,15.0,3.0,584.0000000000009,11.404783306350526,5621.533333333334,10.60000000000006,26.0,36.4,33.86666666666667,68.4,28.133333333333333,70.73333333333333,28.333333333333332,20.333333333333332,38.933333333333394
8220,Msc. David Pete,male,1995-02-03 19:03:00,1,0,2,1,59380.0,9310.0,13.0,781.0,255.0,928.0,1464.0,673.0,662.0,295.0,363,0.5269213297533858,1,38.73976919756659,-9.195930114351093,-0.49999999999999967,-0.8660254037844388,5.0,1.0,9972.0,11.335400386659815,11876.0,1862.0,2.6,156.2,51.0,185.6,292.8,134.6,132.4,59.0,1994.4
8271,Bsc. Edward Liang,male,1959-07-31 20:40:00,1,0,1,4,35373.0,3605.0,265.0,892.0,1095.0,971.0,680.0,1739.0,2174.0,493.0,111,0.8472850266540857,1,38.74394900961664,-9.190851285877462,0.7071067811865476,-0.7071067811865475,18.0,1.0,5779.0,10.879310545111617,1965.1666666666667,200.27777777777777,14.722222222222221,49.55555555555556,60.833333333333336,53.94444444444444,37.77777777777778,96.61111111111111,120.77777777777777,27.38888888888889,321.05555555555554
8285,Bsc. Mark Cook,male,1992-10-07 18:21:00,1,3,1,5,41277.0,5274.0,1146.0,1126.0,2635.0,1759.0,1953.0,253.0000000000001,416.0,233.0,485,0.1541303009578964,1,38.75808507134126,-9.14863119297227,0.258819045102521,-0.9659258262890682,12.0,4.0,5690.0,11.031059758648459,3439.75,439.5,95.5,93.83333333333333,219.58333333333334,146.58333333333334,162.75,21.083333333333343,34.666666666666664,19.416666666666668,474.1666666666667
8310,Deloris Tennon,female,1944-02-02 10:58:00,0,0,1,1,14451.0,12564.0,83.0,519.0,1170.0,1040.0,623.0,211.9999999999999,3315.0,150.0,97,0.2249617390704035,1,38.73712036549944,-9.196475489405415,0.8660254037844387,-0.4999999999999998,6.0,0.0,15879.0,10.819918274611197,2408.5,2094.0,13.833333333333334,86.5,195.0,173.33333333333334,103.83333333333333,35.333333333333314,552.5,25.0,2646.5
8328,Bsc. Shannon Ross,female,1955-09-27 05:32:00,0,1,2,2,9009.0,339.0,213.0,92.0,132.0,550.0,164.0,776.0,2302.0,486.0,17,0.7893352047644611,1,38.764322843294266,-9.13782876183698,-0.49999999999999967,-0.8660254037844388,19.0,1.0,2641.0,9.723463354790857,474.1578947368421,17.842105263157894,11.210526315789474,4.842105263157895,6.947368421052632,28.94736842105263,8.631578947368421,40.8421052631579,121.15789473684211,25.57894736842105,139.0
8336,Msc. Frank Shepard,male,1962-06-11 12:30:00,2,3,1,2,37177.0,4702.0,687.0,1504.0,1141.0,1562.0,1748.0,1209.0,556.0,493.0,77,0.339224371112176,1,38.77594098062929,-9.11837352395272,0.8660254037844387,-0.4999999999999998,13.0,5.0,5258.0,10.933785311020364,2859.769230769231,361.6923076923077,52.84615384615385,115.6923076923077,87.76923076923077,120.15384615384616,134.46153846153845,93.0,42.76923076923077,37.92307692307692,404.46153846153845
8344,Phd. Pat Steel,female,1963-02-19 22:23:00,1,0,1,5,54767.0,1213.0,310.0,682.0,564.0,832.0,1413.0,3287.0,259.0,210.0,204,0.3867381413030973,1,38.715219928319925,-9.189644695021164,-0.9659258262890683,-0.25881904510252063,17.0,1.0,1472.0,11.082296383198514,3221.5882352941176,71.3529411764706,18.235294117647058,40.11764705882353,33.1764705882353,48.94117647058823,83.11764705882354,193.35294117647058,15.235294117647058,12.352941176470589,86.58823529411765
8355,Bsc. Linda Clement,female,1973-03-18 01:00:00,3,3,1,8,35846.0,4389.0,886.0,1717.0,1839.0,2249.0,1336.0,1141.0,450.0,247.0,204,0.2743250548874939,1,38.71060087935263,-9.195518744997788,-0.7071067811865471,-0.7071067811865479,13.0,6.0,4839.0,10.913996959649264,2757.3846153846152,337.61538461538464,68.15384615384616,132.07692307692307,141.46153846153845,173.0,102.76923076923077,87.76923076923077,34.61538461538461,19.0,372.2307692307692
8368,Phd. Willie Covington,female,1945-12-27 04:26:00,5,2,1,7,21152.0,5354.0,673.0,858.0,2794.0,1419.0,1845.0,1393.0,314.0,133.0,178,0.3045467995553667,1,38.73089189890148,-9.136312788639628,0.9659258262890683,-0.25881904510252063,12.0,7.0,5668.0,10.635951595473024,1762.6666666666667,446.1666666666667,56.083333333333336,71.5,232.83333333333334,118.25,153.75,116.08333333333333,26.166666666666668,11.083333333333334,472.3333333333333
8431,Bsc. Noriko Sams,female,1957-10-09 18:11:00,1,1,1,3,68644.0,2113.0,142.0,1213.0,770.0,1249.0,108.0,362.0,181.0,330.0,267,0.6253192277871797,1,38.738112143916695,-9.19270887920134,-0.5000000000000004,0.8660254037844384,16.0,2.0,2294.0,11.25683249476492,4290.25,132.0625,8.875,75.8125,48.125,78.0625,6.75,22.625,11.3125,20.625,143.375
8435,Sharon Doherty,female,1974-10-18 20:01:00,0,2,5,2,161.0,14200.0,74.0,737.0,930.0,653.0,803.0,462.0,1154.0,690.0,87,0.2429377443489663,1,38.76300051882353,-9.19383897406854,-0.8660254037844384,-0.5000000000000004,15.0,2.0,15354.0,10.469340988688563,10.733333333333333,946.6666666666666,4.933333333333334,49.13333333333333,62.0,43.53333333333333,53.53333333333333,30.8,76.93333333333334,46.0,1023.6
8439,Msc. Howard Binkley,male,1973-10-08 12:34:00,5,3,0,3,40336.0,7295.0,659.0,842.0,36.0,1670.0,1346.0,467.0,293.0,845.0,163,0.1195725514665952,1,38.74679160066012,-9.150116577096648,0.5,-0.8660254037844387,10.0,8.0,7588.0,11.024806743739308,4033.6,729.5,65.9,84.2,3.6,167.0,134.6,46.7,29.3,84.5,758.8
8463,Phd. Mohammad Buckingham,male,1966-08-15 21:42:00,1,1,0,1,13038.0,1839.0,1890.0,460.0,513.0,86.0,148.9999999999999,1135.0,230.0,895.0,99,0.0132091868190235,1,38.749722025417455,-9.19611973856398,-0.7071067811865471,-0.7071067811865479,13.0,2.0,2069.0,10.012566147562366,1002.9230769230769,141.46153846153845,145.3846153846154,35.38461538461539,39.46153846153846,6.615384615384615,11.461538461538453,87.3076923076923,17.692307692307693,68.84615384615384,159.15384615384616
8488,Bsc. John Wolchesky,male,1977-10-08 03:33:00,0,0,1,1,29651.0,9660.0,143.0,281.0,641.0,497.0,643.0,961.0,800.0,849.0,175,0.04185684236433229,1,38.75690286450947,-9.172253086438548,0.8660254037844387,-0.4999999999999998,5.0,0.0,10460.0,10.90755103814573,5930.2,1932.0,28.6,56.2,128.2,99.4,128.6,192.2,160.0,169.8,2092.0
8506,Bsc. Glennis Caggiano,female,1947-01-11 04:05:00,0,1,0,1,21681.0,18224.999999999996,85.0,876.0,1268.0,716.0,84.0,181.0,386.0,212.0,111,0.1182674577301907,1,38.77715521068008,-9.13157105288432,0.8660254037844387,-0.4999999999999998,7.0,1.0,18610.999999999996,11.040133953188832,3097.285714285714,2603.571428571428,12.142857142857142,125.14285714285714,181.14285714285714,102.28571428571429,12.0,25.857142857142858,55.142857142857146,30.285714285714285,2658.7142857142853
8531,Msc. Sharon Farmer,female,1977-08-01 05:50:00,1,0,2,4,3330.0,3360.0,190.0,561.0,881.0,886.0,273.0,2695.0,310.0,648.0,210,0.6635660158784722,1,38.736871335408566,-9.14836175487759,-0.7071067811865471,-0.7071067811865479,13.0,1.0,3670.0,9.729431740159207,256.15384615384613,258.46153846153845,14.615384615384615,43.15384615384615,67.76923076923077,68.15384615384616,21.0,207.30769230769232,23.846153846153847,49.84615384615385,282.3076923076923
8567,Bsc. Patricia Bracken,female,1987-11-26 08:53:00,4,1,0,1,31367.0,4761.0,995.0,1083.0,1523.0,2773.0,1546.0,1273.0,377.0,153.0,315,0.1346517794164821,1,38.72316095650512,-9.135590043563166,1.249000902703301e-16,-1.0,17.0,5.0,5138.0,10.839384814049202,1845.1176470588234,280.05882352941177,58.529411764705884,63.705882352941174,89.58823529411765,163.11764705882354,90.94117647058823,74.88235294117646,22.176470588235293,9.0,302.2352941176471
8603,Msc. Shirley Murrah,female,1970-06-11 15:01:00,2,2,4,4,43698.0,6108.0,223.0,472.0,452.0,1106.0,1343.0,1135.0,990.0,308.0,281,0.9646208809416652,1,38.70816283529056,-9.192964772195706,1.249000902703301e-16,-1.0,13.0,4.0,7098.0,11.049841837189659,3361.3846153846152,469.84615384615387,17.153846153846153,36.30769230769231,34.76923076923077,85.07692307692308,103.3076923076923,87.3076923076923,76.15384615384616,23.692307692307693,546.0
8613,Phd. Larry Lundberg,male,1976-02-12 21:39:00,0,1,5,1,39847.0,11570.0,195.40000000000003,319.00000000000006,1198.0,2199.0,1416.0,1327.0,470.0,200.0,103,0.4334167475429108,1,38.75011770009359,-9.193237939079491,-0.25881904510252074,-0.9659258262890683,10.0,1.0,12040.0,11.167365661208178,3984.7,1157.0,19.540000000000003,31.900000000000006,119.8,219.9,141.6,132.7,47.0,20.0,1204.0
8691,Phd. Leroy Roy,male,1998-05-31 09:13:00,4,2,1,6,29314.0,6038.0,250.0,1243.0,2419.0,1557.0,730.5999999999999,561.0,379.0,365.0,353,0.05254702920820309,1,38.72939482688535,-9.11787784995862,0.258819045102521,-0.9659258262890682,0.0,6.0,6417.0,10.805164014281225,29314.0,6038.0,250.0,1243.0,2419.0,1557.0,730.5999999999999,561.0,379.0,365.0,6417.0
8701,Msc. Herbert Wolfe,male,1947-07-13 03:12:00,1,1,2,4,60950.0,3393.0000000000005,350.0,56.0,571.0,1663.0,977.0,1166.0,436.00000000000006,447.0,224,0.5895689754885526,1,38.754161180709325,-9.11817070151357,-0.2588190451025215,0.9659258262890682,17.0,2.0,3829.0000000000005,11.209642326289796,3585.294117647059,199.58823529411768,20.58823529411765,3.2941176470588234,33.588235294117645,97.82352941176471,57.470588235294116,68.58823529411765,25.647058823529417,26.294117647058822,225.23529411764707
8724,Phd. Clinton Crowley,male,1943-01-24 15:42:00,3,3,1,2,26911.0,6055.0,1239.0,625.0,1139.0,2050.0,921.0,1094.0,338.0,1099.0,355,0.3151493313977783,1,38.75604471953911,-9.19096836757574,0.7071067811865476,-0.7071067811865475,10.0,6.0,6393.0,10.776139827380453,2691.1,605.5,123.9,62.5,113.9,205.0,92.1,109.4,33.8,109.9,639.3
8757,Joel Hines,male,1980-06-18 01:49:00,1,0,0,3,7070.0,26596.0,148.0,632.0,888.0,714.0,1069.0,422.0,1782.0,287.0,40,0.0864753492420603,1,38.72482286248287,-9.14708408807671,-0.8660254037844386,0.5000000000000002,12.0,1.0,28378.0,11.127071789411104,589.1666666666666,2216.3333333333335,12.333333333333334,52.666666666666664,74.0,59.5,89.08333333333333,35.166666666666664,148.5,23.916666666666668,2364.8333333333335
8813,Phd. Wanda Jarman,female,1944-02-24 09:33:00,6,2,2,1,46497.0,6538.0,728.0,463.0,734.0,911.0,772.0,1267.0,563.0,352.0,91,0.2012883303597247,1,38.75041236493838,-9.149920385103703,-0.49999999999999967,-0.8660254037844388,24.0,8.0,7101.0,11.096303348266055,1937.375,272.4166666666667,30.333333333333332,19.291666666666668,30.583333333333332,37.958333333333336,32.166666666666664,52.791666666666664,23.458333333333332,14.666666666666666,295.875
8851,Msc. Jane Bronstein,female,1985-10-04 07:11:00,1,1,1,5,74748.0,2375.9999999999995,300.0,1219.0,522.0,789.0,685.0,2715.0,453.0,255.0,254,0.4523868280148343,1,38.75275382487898,-9.187791795921132,-0.49999999999999967,-0.8660254037844388,17.0,2.0,2828.9999999999995,11.37242124717682,4396.941176470588,139.76470588235293,17.647058823529413,71.70588235294117,30.705882352941178,46.411764705882355,40.294117647058826,159.7058823529412,26.647058823529413,15.0,166.41176470588232
8870,Richard Fortin,male,1950-05-15 23:05:00,0,0,2,1,6880.0,6974.0,345.0,465.0,1499.0,802.0,330.0000000000001,101.0,3272.0,592.0,115,0.399987386050689,1,38.743387774635465,-9.199394867757904,-0.49999999999999967,-0.8660254037844388,12.0,0.0,10246.0,10.357965022348246,573.3333333333334,581.1666666666666,28.75,38.75,124.91666666666667,66.83333333333333,27.50000000000001,8.416666666666666,272.6666666666667,49.333333333333336,853.8333333333334
8902,Msc. Doris Mahoney,female,1976-09-10 11:40:00,1,0,0,4,16908.0,3342.0,667.0,344.0,1115.0,348.0,677.0,115.0,21.0,904.0,189,0.6554371831612298,1,38.70548131884503,-9.11799870185593,-0.8660254037844384,-0.5000000000000004,5.0,1.0,3363.0,10.232971139621664,3381.6,668.4,133.4,68.8,223.0,69.6,135.4,23.0,4.2,180.8,672.6
8981,Bsc. Shannon Kuether,female,1943-03-02 16:01:00,1,3,3,3,89227.0,3404.9999999999995,426.0,396.0,426.0,549.0,992.0,489.0,57.0,508.0,41,0.3029490842604869,1,38.75010575995244,-9.173601939459022,-0.9659258262890683,-0.25881904510252063,11.0,4.0,3461.9999999999995,11.51230527269075,8111.545454545455,309.5454545454545,38.72727272727273,36.0,38.72727272727273,49.90909090909091,90.18181818181819,44.45454545454545,5.181818181818182,46.18181818181818,314.7272727272727
8983,Msc. Thomas Stein,male,1946-09-22 15:35:00,3,3,1,4,46259.0,4405.0,731.0,1192.0,2370.0,1976.0,3064.0,972.0,766.0,671.0,277,0.3324951001694131,1,38.77063175647167,-9.18268545271065,0.9659258262890683,-0.25881904510252063,5.0,6.0,5171.0,11.121037765275751,9251.8,881.0,146.2,238.4,474.0,395.2,612.8,194.4,153.2,134.2,1034.2
8991,Bsc. Donna Foster,female,1977-01-22 14:50:00,1,0,1,4,13790.0,2784.0,292.0,551.0,496.0,2467.0,481.0,2261.0,1390.1999999999998,312.0,192,0.2995926414709066,1,38.75983379298485,-9.150932891806844,-0.23460652149512315,-0.1800199154990743,10.0,1.0,4174.2,10.275030419099405,1379.0,278.4,29.2,55.1,49.6,246.7,48.1,226.1,139.01999999999998,31.2,417.41999999999996
9006,Phd. Cheryl Schreck,female,1966-12-23 10:53:00,1,0,1,4,38890.0,3361.0,240.0,746.0,798.0,916.0,865.0,433.00000000000006,384.0,483.0,545,0.059547060226642023,0,38.76577124131993,-9.134070329494284,-0.49999999999999967,-0.8660254037844388,12.0,1.0,3745.0,10.83687136183646,3240.8333333333335,280.0833333333333,20.0,62.166666666666664,66.5,76.33333333333333,72.08333333333333,36.083333333333336,32.0,40.25,312.0833333333333
9067,Bsc. Joshua Arrington,male,1949-10-25 20:40:00,0,3,0,1,49412.0,4303.0,433.0,680.0,1964.0,2890.0,1218.0,416.0,479.0,544.0,409,0.1672706897757266,1,38.77576100580159,-9.125828864297269,0.258819045102521,-0.9659258262890682,15.0,3.0,4782.0,11.114267138074986,3294.133333333333,286.8666666666667,28.866666666666667,45.333333333333336,130.93333333333334,192.66666666666666,81.2,27.733333333333334,31.933333333333334,36.266666666666666,318.8
9068,Phd. Frank Agudo,male,1950-06-29 18:51:00,1,1,1,5,50458.0,6040.0,262.0,685.0,486.0,1020.0,1439.0,2398.0,1593.0,303.0,349,0.159856901972782,1,38.74841464941934,-9.1193791284301,-0.49999999999999967,-0.8660254037844388,13.0,2.0,7633.0,11.188828339816398,3881.3846153846152,464.61538461538464,20.153846153846153,52.69230769230769,37.38461538461539,78.46153846153847,110.6923076923077,184.46153846153845,122.53846153846153,23.307692307692307,587.1538461538462
9095,Phd. Christopher Smeltzer,male,1970-12-16 03:05:00,2,4,0,4,24892.0,5841.0,727.0,990.0,1471.0,2104.0,2734.0,1153.0,560.0,884.0,268,0.2229081104235894,1,38.73478481854679,-9.117734551488043,0.7071067811865476,-0.7071067811865475,5.0,6.0,6401.0,10.773901871142757,4978.4,1168.2,145.4,198.0,294.2,420.8,546.8,230.6,112.0,176.8,1280.2
9106,Bsc. Samantha Seley,female,1956-05-24 13:38:00,2,0,2,3,30733.0,5514.0,1052.0,854.0,1313.0,2473.0,1362.0,1083.0,365.99999999999994,648.0,301,0.3818486343097211,1,38.75203924068469,-9.12675926672963,0.7071067811865476,-0.7071067811865475,9.0,2.0,5880.0,10.845036590624378,3414.777777777778,612.6666666666666,116.88888888888889,94.88888888888889,145.88888888888889,274.77777777777777,151.33333333333334,120.33333333333333,40.66666666666666,72.0,653.3333333333334
